year,date,name,acres,latitude,longitude,burn_type,treatment_type,county_unit_ID,county,source,fire_type
1984,3/29/1984,FK 1817,1462,36.074,-120.188,,,,Fresno,MTBS,WILDFIRE
1984,5/26/1984,WOODROW,1118,35.611,-118.446,,,,Kern,MTBS,WILDFIRE
1984,6/24/1984,SALT SPRING,4837,38.004,-120.647,,,,Calaveras,MTBS,WILDFIRE
1984,7/5/1984,PACHECO 2,1231,36.883,-121.158,,,,Merced,MTBS,WILDFIRE
1984,7/7/1984,BODFISH,23189,35.579,-118.388,,,,Kern,MTBS,WILDFIRE
1984,8/29/1984,BAR-O,2987,36.406,-118.848,,,,Tulare,MTBS,WILDFIRE
1984,5/12/1984,STODDARD 2,2458,34.701,-117.075,,,,San Bernardino,MTBS,WILDFIRE
1984,7/5/1984,TURTLE,3979,40.078,-120.066,,,,Lassen,MTBS,WILDFIRE
1984,7/6/1984,TWIN,21476,40.691,-120.022,,,,Lassen,MTBS,WILDFIRE
1984,8/9/1984,EAGLE,1734,41.26,-120.12,,,,Modoc,MTBS,WILDFIRE
1984,7/12/1984,LOWERY,2868,39.981,-122.591,,,,Tehama,MTBS,WILDFIRE
1984,10/24/1984,CLARK VALLEY,1470,39.392,-122.451,,,,Glenn,MTBS,WILDFIRE
1984,9/7/1984,BRUSHY,2795,40.011,-121.817,,,,Tehama,MTBS,WILDFIRE
1984,5/7/1984,MINUTEMAN,3159,34.807,-120.501,,,,Santa Barbara,MTBS,WILDFIRE
1984,7/2/1984,BIDWELL,6012,39.784,-121.696,,,,Butte,MTBS,WILDFIRE
1984,5/25/1984,OIL FIELDS,1136,36.26,-120.317,,,,Fresno,MTBS,WILDFIRE
1984,8/10/1984,BLUE,1977,34.905,-119.286,,,,Kern,MTBS,WILDFIRE
1984,5/29/1984,SHANNON FIRE,3554,34.552,-118.183,,,,Los Angeles,MTBS,WILDFIRE
1984,5/21/1984,COTTONWOOD,1409,37.098,-121.162,,,,Merced,MTBS,WILDFIRE
1984,4/21/1984,PROCTOR,3021,32.682,-116.886,,,,San Diego,MTBS,WILDFIRE
1984,9/6/1984,BOWLES,3073,32.945,-116.935,,,,San Diego,MTBS,WILDFIRE
1984,6/15/1984,LOMA RIDGE,1384,33.75,-117.729,,,,Orange,MTBS,WILDFIRE
1984,6/28/1984,SITE 300 3,6911,37.651,-121.474,,,,San Joaquin,MTBS,WILDFIRE
1984,6/29/1984,BONNHEIM,1622,35.197,-120.394,,,,San Luis Obispo,MTBS,WILDFIRE
1984,8/21/1984,BLUE RIDGE,1566,36.314,-118.869,,,,Tulare,MTBS,WILDFIRE
1984,10/10/1984,BEAR CREEK,1306,36.51,-118.882,,,,Tulare,MTBS,WILDFIRE
1984,10/15/1984,SQUAW FLAT,6048,34.44,-118.892,,,,Ventura,MTBS,WILDFIRE
1984,7/6/1984,MESCAL,1479,34.452,-117.726,,,,Los Angeles,MTBS,WILDFIRE
1984,5/30/1984,AGUANGA,5564,33.413,-116.873,,,,San Diego,MTBS,WILDFIRE
1984,5/29/1984,MORETZZ,1585,35.253,-120.547,,,,San Luis Obispo,MTBS,WILDFIRE
1984,8/13/1984,RAIL,3025,41.923,-120.65,,,,Modoc,MTBS,WILDFIRE
1984,8/21/1984,SECOND,1201,40.034,-120.14,,,,Lassen,MTBS,WILDFIRE
1984,5/28/1984,LYTLE,2442,34.285,-117.554,,,,San Bernardino,MTBS,WILDFIRE
1984,5/31/1984,LOST HORSE,4130,34.023,-116.255,,,,Riverside,MTBS,WILDFIRE
1984,8/23/1984,BADGER,1113,40.548,-121.407,,,,Shasta,MTBS,WILDFIRE
1984,6/30/1984,UNNAMED,1539,34.856,-118.586,,,,Kern,MTBS,UNKNOWN
1984,6/21/1984,UNNAMED,2053,35.141,-120.204,,,,San Luis Obispo,MTBS,UNKNOWN
1984,6/21/1984,UNNAMED,1910,35.253,-119.486,,,,Kern,MTBS,UNKNOWN
1984,6/21/1984,UNNAMED,1059,35.499,-118.886,,,,Kern,MTBS,UNKNOWN
1984,6/28/1984,UNNAMED,23122,35.929,-121.234,,,,Monterey,MTBS,UNKNOWN
1984,6/28/1984,UNNAMED,3020,35.766,-120.755,,,,San Luis Obispo,MTBS,UNKNOWN
1984,6/28/1984,UNNAMED,10420,36.05,-121.293,,,,Monterey,MTBS,UNKNOWN
1984,6/28/1984,UNNAMED,1219,36.208,-121.052,,,,Monterey,MTBS,UNKNOWN
1984,6/28/1984,UNNAMED,1225,36.269,-121.29,,,,Monterey,MTBS,UNKNOWN
1984,6/30/1984,UNNAMED,1596,36.46,-117.363,,,,Inyo,MTBS,UNKNOWN
1984,11/3/1984,UNNAMED,1771,37.642,-120.008,,,,Mariposa,MTBS,UNKNOWN
1984,7/30/1984,UNNAMED,2033,37.933,-120.383,,,,Tuolumne,MTBS,UNKNOWN
1984,7/5/1984,UNNAMED,2672,39.951,-121.804,,,,Tehama,MTBS,UNKNOWN
1984,9/7/1984,UNNAMED,3448,40.116,-121.872,,,,Tehama,MTBS,UNKNOWN
1984,1/26/1984,MODJESKA,1266,33.708,-117.639,,,,Orange,MTBS,WILDFIRE
1984,9/29/1984,COW,3273,37.996,-118.807,,,,Mono,MTBS,WILDFIRE
1984,7/17/1984,ANN AND PORKIES II,1016,37.78,-119.61,,,,Mariposa,MTBS,WILDFIRE
1984,6/30/1984,UNNAMED,5585,36.549,-117.447,,,,Inyo,MTBS,UNKNOWN
1984,8/19/1984,TWISSELMAN,5091,35.398,-119.832,,,,Kern,MTBS,WILDFIRE
1984,5/25/1984,FLAT TOP,6661,35.896,-120.133,,,,Kings,MTBS,WILDFIRE
1984,5/7/1984,GRIMES FIRE,10542,34.327,-118.963,,,,Ventura,MTBS,WILDFIRE
1984,6/2/1984,BONANZA,12105,36.748,-120.938,,,,San Benito,MTBS,WILDFIRE
1985,7/12/1985,TULARE 4,1290,36.011,-118.797,,,,Tulare,MTBS,WILDFIRE
1985,5/3/1985,ADELAIDE,1054,35.443,-118.777,,,,Kern,MTBS,WILDFIRE
1985,6/9/1985,PONOCHE 2,7508,36.727,-120.768,,,,Fresno,MTBS,WILDFIRE
1985,7/2/1985,LOWES,2708,35.903,-120.563,,,,Monterey,MTBS,WILDFIRE
1985,7/6/1985,ONION,8583,36.739,-118.252,,,,Inyo,MTBS,WILDFIRE
1985,7/6/1985,LOSGATOSIV,20357,36.379,-120.583,,,,Fresno,MTBS,WILDFIRE
1985,7/6/1985,BIG SANDY,3139,35.994,-120.575,,,,Monterey,MTBS,WILDFIRE
1985,7/6/1985,ANDREWS,5071,36.037,-120.559,,,,Monterey,MTBS,WILDFIRE
1985,5/19/1985,SKEDADDLE,1358,40.305,-120.158,,,,Lassen,MTBS,WILDFIRE
1985,8/7/1985,BASS HILL,2495,40.343,-120.52,,,,Lassen,MTBS,WILDFIRE
1985,6/11/1985,ROCK CREEK,1169,39.851,-121.772,,,,Butte,MTBS,WILDFIRE
1985,8/31/1985,MILLER,2027,38.446,-122.093,,,,Solano,MTBS,WILDFIRE
1985,7/8/1985,HAL JNCT 2,2427,39.769,-120.013,,,,Lassen,MTBS,WILDFIRE
1985,9/12/1985,UNNAMED,2720,34.604,-119.919,,,,Santa Barbara,MTBS,WILDFIRE
1985,7/17/1985,UNNAMED,1519,35.861,-120.561,,,,Monterey,MTBS,WILDFIRE
1985,6/13/1985,UNNAMED,9655,38.859,-122.856,,,,Mendocino,MTBS,WILDFIRE
1985,5/26/1985,BUMB,1298,36.623,-120.979,,,,San Benito,MTBS,WILDFIRE
1985,6/10/1985,PINEY CREEK,1594,36.348,-121.467,,,,Monterey,MTBS,WILDFIRE
1985,7/8/1985,CHERRY,41654,36.065,-121.165,,,,Monterey,MTBS,WILDFIRE
1985,6/30/1985,MILLER,7809,32.699,-116.927,,,,San Diego,MTBS,WILDFIRE
1985,7/1/1985,ROBLAR,7453,33.4,-117.342,,,,San Diego,MTBS,WILDFIRE
1985,7/27/1985,SYCAMORE,1012,32.932,-116.947,,,,San Diego,MTBS,WILDFIRE
1985,10/14/1985,PIUMA FIRE,5425,34.054,-118.698,,,,Los Angeles,MTBS,WILDFIRE
1985,10/14/1985,BOX CANYON (PIONEER) FIRE,1247,34.249,-118.654,,,,Ventura,MTBS,WILDFIRE
1985,6/30/1985,SHERWOOD FIRE,3897,34.117,-118.857,,,,Los Angeles,MTBS,WILDFIRE
1985,7/8/1985,MURRER,1201,40.592,-120.689,,,,Lassen,MTBS,WILDFIRE
1985,9/7/1985,HIDDEN VALLEY,2042,38.805,-122.527,,,,Lake,MTBS,WILDFIRE
1985,10/8/1985,BALD MT.,5339,38.746,-122.103,,,,Yolo,MTBS,WILDFIRE
1985,8/3/1985,UNNAMED,7265,35.857,-121.391,,,,Monterey,MTBS,WILDFIRE
1985,8/11/1985,SHELL,1425,33.919,-117.784,,,,Orange,MTBS,WILDFIRE
1985,7/7/1985,LEXINGTON,11597,37.141,-121.918,,,,Santa Clara,MTBS,WILDFIRE
1985,7/8/1985,FINLEY,1875,37.158,-121.576,,,,Santa Clara,MTBS,WILDFIRE
1985,7/4/1985,GANN,1008,38.095,-120.754,,,,Calaveras,MTBS,WILDFIRE
1985,10/14/1985,HUMMINGBIRD,2425,34.284,-118.648,,,,Ventura,MTBS,WILDFIRE
1985,10/14/1985,PEACH HILL,1992,34.252,-118.928,,,,Ventura,MTBS,WILDFIRE
1985,7/3/1985,BLACK MOUNTAIN,1250,34.43,-119.22,,,,Ventura,MTBS,WILDFIRE
1985,7/16/1985,UNNAMED,1651,40.296,-120.069,,,,Lassen,MTBS,WILDFIRE
1985,10/4/1985,UNNAMED,1062,33.413,-117.389,,,,San Diego,MTBS,WILDFIRE
1985,8/8/1985,OWENS,3067,37.768,-118.817,,,,Mono,MTBS,WILDFIRE
1985,6/5/1985,WIZARD,8561,36.024,-121.382,,,,Monterey,MTBS,WILDFIRE
1985,7/1/1985,LAS PILITAS,75841,35.287,-120.506,,,,San Luis Obispo,MTBS,WILDFIRE
1985,7/1/1985,WHEELER 2,126854,34.51,-119.354,,,,Ventura,MTBS,WILDFIRE
1985,7/2/1985,SECO,2094,36.227,-121.44,,,,Monterey,MTBS,WILDFIRE
1985,7/6/1985,GORDA-RAT,52474,36.066,-121.461,,,,Monterey,MTBS,WILDFIRE
1985,10/14/1985,FERNDALE,46724,34.413,-119.149,,,,Ventura,MTBS,WILDFIRE
1985,6/27/1985,CABANZO,14091,33.867,-116.633,,,,Riverside,MTBS,WILDFIRE
1985,6/28/1985,RICH BAR,8141,35.458,-118.707,,,,Kern,MTBS,WILDFIRE
1985,7/18/1985,DELTA,1657,40.956,-122.452,,,,Shasta,MTBS,WILDFIRE
1985,7/26/1985,TRELOAR COMPLEX,4077,40.808,-123.214,,,,Trinity,MTBS,WILDFIRE
1985,8/2/1985,BRICEBURG,1091,37.632,-119.958,,,,Mariposa,MTBS,WILDFIRE
1985,5/23/1985,UNNAMED,2620,34.54,-119.615,,,,Santa Barbara,MTBS,WILDFIRE
1985,9/12/1985,UNNAMED,1112,34.814,-120.335,,,,Santa Barbara,MTBS,WILDFIRE
1985,7/26/1985,UNNAMED,2356,35.044,-120.056,,,,Santa Barbara,MTBS,WILDFIRE
1985,10/14/1985,DECKER,6945,34.066,-118.916,,,,Los Angeles,MTBS,WILDFIRE
1985,6/25/1985,DOUGHERTY,1656,36.959,-118.626,,,,Fresno,MTBS,WILDFIRE
1985,7/28/1985,SUGARLOAF,2882,36.715,-118.662,,,,Tulare,MTBS,WILDFIRE
1985,6/30/1985,PATEVALLEY,1079,37.93,-119.571,,,,Tuolumne,MTBS,WILDFIRE
1985,8/2/1985,UNNAMED,1731,38.163,-120.73,,,,Calaveras,MTBS,UNKNOWN
1985,6/29/1985,UNNAMED,2415,40.647,-121.975,,,,Shasta,MTBS,UNKNOWN
1985,7/27/1985,WAGNER COMPLEX,1248,41.115,-122.789,,,,Trinity,MTBS,WILDFIRE
1985,7/15/1985,SYCAMORE 1,1469,36.983,-119.339,,,,Fresno,MTBS,WILDFIRE
1985,8/12/1985,FALLS 2,3546,37.595,-120.294,,,,Mariposa,MTBS,WILDFIRE
1985,7/3/1985,ROADSIDE 3 4 5 6,1009,38.812,-121.335,,,,Placer,MTBS,WILDFIRE
1985,7/25/1985,BARTLETT,1052,38.022,-119.822,,,,Tuolumne,MTBS,WILDFIRE
1985,7/25/1985,KENDRICK,1252,38.023,-119.771,,,,Tuolumne,MTBS,WILDFIRE
1985,7/28/1985,LOST BEAR,1002,37.645,-119.598,,,,Mariposa,MTBS,WILDFIRE
1986,7/17/1986,DERBY ACRE,1655,35.24,-119.545,,,,Kern,MTBS,WILDFIRE
1986,11/6/1986,RIVER,4615,36.378,-121.425,,,,Monterey,MTBS,WILDFIRE
1986,5/30/1986,NSCRIPTION,4710,35.183,-117.143,,,,San Bernardino,MTBS,WILDFIRE
1986,9/4/1986,MINE,1031,32.581,-116.768,,,,San Diego,MTBS,WILDFIRE
1986,7/18/1986,WENDEL,1639,40.377,-120.211,,,,Lassen,MTBS,WILDFIRE
1986,9/15/1986,UNNAMED,4396,34.634,-119.892,,,,Santa Barbara,MTBS,WILDFIRE
1986,8/30/1986,UNNAMED,1353,35.04,-120.317,,,,San Luis Obispo,MTBS,WILDFIRE
1986,7/29/1986,UNNAMED,1071,36.804,-119.283,,,,Fresno,MTBS,WILDFIRE
1986,6/9/1986,UNNAMED,2811,37.656,-121.529,,,,San Joaquin,MTBS,WILDFIRE
1986,6/2/1986,PANOCHE 2,1556,36.659,-120.863,,,,San Benito,MTBS,WILDFIRE
1986,5/24/1986,BRYANT CANYON,2119,36.445,-121.277,,,,Monterey,MTBS,WILDFIRE
1986,6/17/1986,DEER VALLEY RANCH,1031,35.894,-120.613,,,,Monterey,MTBS,WILDFIRE
1986,8/17/1986,POPPY FIRE,1227,34.745,-118.371,,,,Los Angeles,MTBS,WILDFIRE
1986,4/13/1986,COLORADO 2,1403,33.986,-114.489,,,,Riverside,MTBS,WILDFIRE
1986,5/29/1986,WILMOT,1720,33.899,-117.146,,,,Riverside,MTBS,WILDFIRE
1986,8/26/1986,RANCHITA,1895,35.185,-120.416,,,,San Luis Obispo,MTBS,WILDFIRE
1986,10/25/1986,SUEY RANCH WEST,1262,35.034,-120.248,,,,San Luis Obispo,MTBS,WILDFIRE
1986,11/10/1986,BRADLEY,10100,34.312,-119.058,,,,Ventura,MTBS,WILDFIRE
1986,5/12/1986,UNNAMED,16390,33.423,-117.483,,,,San Diego,MTBS,WILDFIRE
1986,7/16/1986,FREDRICKSBURG,3598,38.83,-119.808,,,,Alpine,MTBS,WILDFIRE
1986,7/3/1986,LEONA,1019,34.629,-118.302,,,,Los Angeles,MTBS,WILDFIRE
1986,7/20/1986,TECALOTE,4085,34.26,-117.89,,,,Los Angeles,MTBS,WILDFIRE
1986,7/13/1986,CAPTAIN,1824,32.948,-116.747,,,,San Diego,MTBS,WILDFIRE
1986,11/6/1986,BOTTCHER,2682,36.352,-121.795,,,,Monterey,MTBS,WILDFIRE
1986,7/21/1986,SYCAMORE,1165,36.921,-119.256,,,,Fresno,MTBS,WILDFIRE
1986,9/9/1986,DEER,10963,36.871,-118.936,,,,Fresno,MTBS,WILDFIRE
1986,7/27/1986,CASCADE CR,2068,37.757,-119.715,,,,Mariposa,MTBS,WILDFIRE
1986,6/13/1986,UNNAMED,1108,33.051,-116.725,,,,San Diego,MTBS,UNKNOWN
1986,7/31/1986,UNNAMED,2541,33.443,-117.428,,,,San Diego,MTBS,UNKNOWN
1986,3/27/1986,UNNAMED,1465,34.556,-118.303,,,,Los Angeles,MTBS,UNKNOWN
1986,5/19/1986,UNNAMED,1513,35.38,-118.811,,,,Kern,MTBS,UNKNOWN
1986,1/1/1986,DRY CREEK,2357,41.034,-120.365,,,,Lassen,MTBS,WILDFIRE
1986,9/27/1986,ELEANOR,1441,38.005,-119.851,,,,Tuolumne,MTBS,WILDFIRE
1987,7/7/1987,UNNAMED,2172,36,-121.027,,,,Monterey,MTBS,WILDFIRE
1987,8/4/1987,PILITAS,1056,35.365,-120.517,,,,San Luis Obispo,MTBS,WILDFIRE
1987,8/29/1987,CASE,4960,36.41,-118.794,,,,Tulare,MTBS,WILDFIRE
1987,8/30/1987,FAY,10177,35.765,-118.286,,,,Kern,MTBS,WILDFIRE
1987,6/14/1987,VERBENIA,1384,33.894,-116.71,,,,Riverside,MTBS,WILDFIRE
1987,6/27/1987,BLACKS,1135,40.624,-120.45,,,,Lassen,MTBS,WILDFIRE
1987,6/13/1987,USFS 10,1270,39.75,-120.178,,,,Plumas,MTBS,WILDFIRE
1987,9/11/1987,UNNAMED,3285,35.128,-118.68,,,,Kern,MTBS,WILDFIRE
1987,9/11/1987,UNNAMED,1219,35.167,-118.731,,,,Kern,MTBS,WILDFIRE
1987,5/5/1987,UNNAMED,2437,35.107,-118.752,,,,Kern,MTBS,WILDFIRE
1987,8/1/1987,UNNAMED,2273,36.899,-119.32,,,,Fresno,MTBS,WILDFIRE
1987,4/16/1987,UNNAMED,1789,38.958,-122.775,,,,Lake,MTBS,WILDFIRE
1987,5/14/1987,STATECA 17,2170,36.3,-120.29,,,,Fresno,MTBS,WILDFIRE
1987,6/18/1987,ASSIST 79,2049,32.89,-117.01,,,,San Diego,MTBS,WILDFIRE
1987,5/19/1987,NUNEZ,1584,36.233,-120.445,,,,Fresno,MTBS,WILDFIRE
1987,8/31/1987,RED MOUNTAIN,4351,36.846,-119.391,,,,Fresno,MTBS,WILDFIRE
1987,8/30/1987,TEN BALD,19635,41.756,-123.526,,,,Siskiyou,MTBS,WILDFIRE
1987,8/31/1987,LIGHTNING 120 (CRANK),3546,41.397,-121.165,,,,Modoc,MTBS,WILDFIRE
1987,8/31/1987,ASSIST P.N.F.,1234,39.683,-121.077,,,,Plumas,MTBS,WILDFIRE
1987,10/4/1987,GRADE,2210,33.181,-117.042,,,,San Diego,MTBS,WILDFIRE
1987,10/3/1987,ANTELOPE,3238,33.609,-117.221,,,,Riverside,MTBS,WILDFIRE
1987,5/7/1987,GERBER,1398,37.513,-121.355,,,,Stanislaus,MTBS,WILDFIRE
1987,5/5/1987,SLU-0864,3546,35.041,-120.347,,,,San Luis Obispo,MTBS,WILDFIRE
1987,11/11/1987,PEPPERTREE CONTROLLE,1242,34.319,-119.173,,,,Ventura,MTBS,WILDFIRE
1987,6/13/1987,BALLS CANYON 2,1285,39.68,-120.062,,,,Sierra,MTBS,WILDFIRE
1987,7/29/1987,ACORN,6341,38.789,-119.822,,,,Alpine,MTBS,WILDFIRE
1987,9/20/1987,RUBY,10001,34.594,-118.555,,,,Los Angeles,MTBS,WILDFIRE
1987,10/3/1987,PALOMAR,10256,33.345,-116.929,,,,San Diego,MTBS,WILDFIRE
1987,8/30/1987,LAUREL,1120,37.613,-118.914,,,,Mono,MTBS,WILDFIRE
1987,8/30/1987,YELLOW 2,53626,41.412,-123.316,,,,Siskiyou,MTBS,WILDFIRE
1987,8/30/1987,ST.CLAIRE,8548,41.111,-123.184,,,,Siskiyou,MTBS,WILDFIRE
1987,8/30/1987,GLASGOW,13496,41.239,-123.211,,,,Siskiyou,MTBS,WILDFIRE
1987,8/30/1987,HOTELLING,17616,41.193,-123.289,,,,Siskiyou,MTBS,WILDFIRE
1987,8/30/1987,FORT COPPER,36333,41.898,-123.22,,,,Siskiyou,MTBS,WILDFIRE
1987,8/30/1987,BEARCAT,2860,41.793,-122.831,,,,Siskiyou,MTBS,WILDFIRE
1987,8/30/1987,KELSEY,3685,41.656,-123.144,,,,Siskiyou,MTBS,WILDFIRE
1987,8/30/1987,ELK LICK,1451,41.849,-123.551,,,,Siskiyou,MTBS,WILDFIRE
1987,8/31/1987,NIELON,1552,41.351,-123.096,,,,Siskiyou,MTBS,WILDFIRE
1987,8/30/1987,GULCH,10973,41.758,-123.284,,,,Siskiyou,MTBS,WILDFIRE
1987,8/30/1987,THOMPSON,5153,41.93,-123.394,,,,Siskiyou,MTBS,WILDFIRE
1987,8/30/1987,CHINA,2941,41.817,-123.274,,,,Siskiyou,MTBS,WILDFIRE
1987,8/30/1987,SLATER,5845,41.834,-123.348,,,,Siskiyou,MTBS,WILDFIRE
1987,8/30/1987,KING TITUS,71390,41.638,-123.389,,,,Siskiyou,MTBS,WILDFIRE
1987,9/1/1987,LAKE,18425,41.748,-123.18,,,,Siskiyou,MTBS,WILDFIRE
1987,8/31/1987,LOST,23599,40.78,-121.426,,,,Shasta,MTBS,WILDFIRE
1987,10/2/1987,FISH,4052,34.664,-119.152,,,,Ventura,MTBS,WILDFIRE
1987,9/1/1987,FOUTS,16892,39.353,-122.771,,,,Lake,MTBS,WILDFIRE
1987,8/31/1987,MENDENHALL,54162,39.542,-123.039,,,,Mendocino,MTBS,WILDFIRE
1987,9/29/1987,LAUDER,2040,39.417,-123.075,,,,Mendocino,MTBS,WILDFIRE
1987,7/15/1987,QUAKING,4417,41.465,-121.322,,,,Modoc,MTBS,WILDFIRE
1987,8/30/1987,BLAKE,1522,40.588,-123.555,,,,Humboldt,MTBS,WILDFIRE
1987,8/31/1987,TRAVIS,11565,40.092,-123.225,,,,Trinity,MTBS,WILDFIRE
1987,8/30/1987,CLARK,39194,40.108,-120.305,,,,Plumas,MTBS,WILDFIRE
1987,5/31/1987,TRUCK,1084,34.271,-117.443,,,,San Bernardino,MTBS,WILDFIRE
1987,8/23/1987,JEEP,1527,34.326,-117.177,,,,San Bernardino,MTBS,WILDFIRE
1987,8/31/1987,DOE,2463,41.198,-122.725,,,,Trinity,MTBS,WILDFIRE
1987,9/2/1987,LAZYMAN,1497,40.091,-122.915,,,,Tehama,MTBS,WILDFIRE
1987,8/30/1987,PEANUT,6064,40.483,-123.2,,,,Trinity,MTBS,WILDFIRE
1987,8/30/1987,FRIENDLY,3474,40.501,-123.307,,,,Trinity,MTBS,WILDFIRE
1987,8/30/1987,COLD,14801,40.527,-123.398,,,,Trinity,MTBS,WILDFIRE
1987,8/30/1987,GULCH,6552,40.658,-123.466,,,,Trinity,MTBS,WILDFIRE
1987,8/30/1987,JESSIE,3489,40.578,-123.467,,,,Trinity,MTBS,WILDFIRE
1987,8/30/1987,TRINITY,1341,40.606,-123.388,,,,Trinity,MTBS,WILDFIRE
1987,8/30/1987,BEAR,5270,40.654,-123.397,,,,Trinity,MTBS,WILDFIRE
1987,8/30/1987,FLUME,12198,40.404,-123.339,,,,Trinity,MTBS,WILDFIRE
1987,8/30/1987,WALLOW,3425,40.448,-123.398,,,,Trinity,MTBS,WILDFIRE
1987,8/30/1987,EAST,10532,40.837,-123.022,,,,Trinity,MTBS,WILDFIRE
1987,8/30/1987,RIPSTEIN,3404,40.902,-123.04,,,,Trinity,MTBS,WILDFIRE
1987,8/30/1987,CHINA,9132,41.051,-123.152,,,,Trinity,MTBS,WILDFIRE
1987,9/1/1987,STRAUSE,6395,40.993,-123.107,,,,Trinity,MTBS,WILDFIRE
1987,6/22/1987,UNNAMED,1445,37.217,-119.311,,,,Fresno,MTBS,WILDFIRE
1987,8/30/1987,HAMM,39333,37.796,-120.06,,,,Mariposa,MTBS,WILDFIRE
1987,8/30/1987,LARSON,49250,37.732,-119.937,,,,Mariposa,MTBS,WILDFIRE
1987,8/31/1987,PAPER,49296,37.917,-120.132,,,,Tuolumne,MTBS,WILDFIRE
1987,9/3/1987,JARREL,1756,37.931,-119.877,,,,Tuolumne,MTBS,WILDFIRE
1987,8/29/1987,INDIAN,8803,39.551,-120.968,,,,Sierra,MTBS,WILDFIRE
1987,8/29/1987,PALMER,2130,39.449,-120.764,,,,Nevada,MTBS,WILDFIRE
1987,8/31/1987,BIG,1048,39.041,-120.558,,,,Placer,MTBS,WILDFIRE
1987,8/30/1987,LONGWOOD,10370,41.997,-123.634,,,,Del Norte,MTBS,WILDFIRE
1987,8/1/1987,UNNAMED,1318,36.942,-119.219,,,,Fresno,MTBS,WILDFIRE
1987,5/7/1987,FERGUSONLK,1692,32.999,-114.505,,,,Imperial,MTBS,WILDFIRE
1987,6/28/1987,FROG,3451,38.019,-119.751,,,,Tuolumne,MTBS,WILDFIRE
1987,7/23/1987,LOST BEAR,1823,37.666,-119.595,,,,Mariposa,MTBS,WILDFIRE
1987,8/31/1987,PAUL,1145,34.01,-116.248,,,,Riverside,MTBS,WILDFIRE
1987,2/10/1987,IMPERIAL,1006,32.969,-114.482,,,,Imperial,MTBS,WILDFIRE
1987,9/9/1987,SILVERADO,5553,33.746,-117.525,,,,Riverside,MTBS,WILDFIRE
1988,8/11/1988,HAVILAH,1413,35.473,-118.553,,,,Kern,MTBS,WILDFIRE
1988,9/11/1988,49R,36673,39.244,-121.207,,,,Nevada,MTBS,WILDFIRE
1988,6/20/1988,LIGHTNING9,3878,36.689,-120.743,,,,Fresno,MTBS,WILDFIRE
1988,6/19/1988,TWISSLEMAN,1823,35.479,-119.897,,,,Kern,MTBS,WILDFIRE
1988,7/19/1988,MASON,4151,38.279,-120.469,,,,Calaveras,MTBS,WILDFIRE
1988,9/3/1988,PIRU,14273,34.437,-118.696,,,,Los Angeles,MTBS,WILDFIRE
1988,8/29/1988,BRANHAM II,1850,40.766,-120.498,,,,Lassen,MTBS,WILDFIRE
1988,9/17/1988,MILLER,35750,38.43,-122.094,,,,Solano,MTBS,WILDFIRE
1988,9/11/1988,RUMSEY,1394,38.877,-122.275,,,,Yolo,MTBS,WILDFIRE
1988,9/18/1988,BLUE RIDGE,5130,38.615,-122.124,,,,Yolo,MTBS,WILDFIRE
1988,8/19/1988,UNNAMED,4709,34.596,-119.873,,,,Santa Barbara,MTBS,WILDFIRE
1988,7/2/1988,UNNAMED,2319,35.704,-119.994,,,,Kern,MTBS,WILDFIRE
1988,7/2/1988,UNNAMED,3963,35.742,-120.035,,,,Kern,MTBS,WILDFIRE
1988,6/21/1988,SANTIAGO,1623,34.916,-119.299,,,,Kern,MTBS,WILDFIRE
1988,9/3/1988,ASSIST 78,1025,32.821,-117.034,,,,San Diego,MTBS,WILDFIRE
1988,7/21/1988,SIMPSON,1087,36.985,-118.638,,,,Fresno,MTBS,WILDFIRE
1988,12/9/1988,SESNON FIRE,2508,34.311,-118.532,,,,Los Angeles,MTBS,WILDFIRE
1988,9/4/1988,KEUHNER FIRE,3907,34.288,-118.648,,,,Ventura,MTBS,WILDFIRE
1988,8/10/1988,LIGHTNING 97 (BISON),3425,41.245,-120.684,,,,Modoc,MTBS,WILDFIRE
1988,8/29/1988,BURNEY FIRE,3036,40.867,-121.599,,,,Shasta,MTBS,WILDFIRE
1988,11/15/1988,UNNAMED,3312,39.281,-122.777,,,,Lake,MTBS,WILDFIRE
1988,8/30/1988,ORTEGA,2269,33.508,-117.605,,,,Orange,MTBS,WILDFIRE
1988,9/4/1988,STAGECOACH,4037,33.781,-117.123,,,,Riverside,MTBS,WILDFIRE
1988,9/9/1988,BENTON,1367,33.604,-117.057,,,,Riverside,MTBS,WILDFIRE
1988,12/9/1988,EL TORRO,1063,33.738,-117.369,,,,Riverside,MTBS,WILDFIRE
1988,9/17/1988,FERN,6412,40.657,-121.875,,,,Shasta,MTBS,WILDFIRE
1988,8/24/1988,RIVER,1446,38.794,-122.966,,,,Sonoma,MTBS,WILDFIRE
1988,6/26/1988,LIGHTNING 84 (STENT,1155,37.904,-120.429,,,,Tuolumne,MTBS,WILDFIRE
1988,6/28/1988,PARDEE,1537,38.27,-120.82,,,,Calaveras,MTBS,WILDFIRE
1988,7/21/1988,BRIDGE,6775,38.338,-120.467,,,,Calaveras,MTBS,WILDFIRE
1988,6/22/1988,LINDSAY,1005,36.212,-118.998,,,,Tulare,MTBS,WILDFIRE
1988,6/2/1988,UNNAMED,2262,33.446,-117.488,,,,San Diego,MTBS,WILDFIRE
1988,10/16/1988,DIVIDE,3969,34.354,-118.392,,,,Los Angeles,MTBS,WILDFIRE
1988,7/17/1988,CAMP,5618,35.278,-120.397,,,,San Luis Obispo,MTBS,WILDFIRE
1988,8/26/1988,POWDERHOUSE,1691,39.658,-122.61,,,,Glenn,MTBS,WILDFIRE
1988,8/17/1988,PASS,1871,33.904,-116.837,,,,Riverside,MTBS,WILDFIRE
1988,9/28/1988,TEXAS,7372,34.188,-117.49,,,,San Bernardino,MTBS,WILDFIRE
1988,9/28/1988,HERMIT,7675,40.182,-123.036,,,,Trinity,MTBS,WILDFIRE
1988,7/2/1988,CLEARHOUSE,2274,37.673,-119.88,,,,Mariposa,MTBS,WILDFIRE
1988,8/30/1988,GARNET,1454,36.877,-119.011,,,,Fresno,MTBS,WILDFIRE
1988,6/2/1988,UNNAMED,1393,33.357,-116.823,,,,San Diego,MTBS,WILDFIRE
1988,6/2/1988,UNNAMED,1587,33.626,-116.734,,,,Riverside,MTBS,WILDFIRE
1988,3/28/1988,UNNAMED,3588,34.606,-119.713,,,,Santa Barbara,MTBS,WILDFIRE
1988,7/11/1988,UNNAMED,1756,35.483,-118.713,,,,Kern,MTBS,WILDFIRE
1988,10/16/1988,BUCKEYE,3007,36.543,-118.744,,,,Tulare,MTBS,WILDFIRE
1988,6/21/1988,ECHO,1393,37.752,-119.426,,,,Mariposa,MTBS,WILDLAND FIRE USE
1988,8/18/1988,ALASKA,1418,37.676,-119.484,,,,Mariposa,MTBS,WILDLAND FIRE USE
1988,6/20/1988,WALKER,3130,37.774,-119.735,,,,Mariposa,MTBS,WILDLAND FIRE USE
1988,7/4/1988,UNNAMED,1523,33.961,-116.578,,,,Riverside,MTBS,UNKNOWN
1988,10/20/1988,UNNAMED,5571,38.753,-121.918,,,,Yolo,MTBS,UNKNOWN
1988,9/2/1988,UNNAMED,1217,39.83,-121.745,,,,Butte,MTBS,UNKNOWN
1988,6/20/1988,ELECONTE,1675,37.94,-119.656,,,,Tuolumne,MTBS,WILDLAND FIRE USE
1988,9/10/1988,UNNAMED,5076,38.776,-122.848,,,,Sonoma,MTBS,UNKNOWN
1988,9/4/1988,SADDLE,5144,40.096,-124.093,,,,Humboldt,MTBS,WILDFIRE
1988,7/24/1988,OBELISK,5675,36.874,-118.845,,,,Fresno,MTBS,WILDFIRE
1988,9/11/1988,KLAMATH,7126,41.609,-124.004,,,,Del Norte,MTBS,WILDFIRE
1989,6/21/1989,UNNAMED,1847,32.81,-116.355,,,,San Diego,MTBS,WILDFIRE
1989,5/28/1989,FERGUSON,2284,33.007,-114.502,,,,Imperial,MTBS,WILDFIRE
1989,5/29/1989,LAGUNA II,3042,32.849,-114.475,,,,Imperial,MTBS,WILDFIRE
1989,3/30/1989,OLIVAS II,1229,36.569,-118.163,,,,Inyo,MTBS,WILDFIRE
1989,7/27/1989,CHISPA,9869,35.45,-120.549,,,,San Luis Obispo,MTBS,WILDFIRE
1989,7/5/1989,DOGPATCH 2,1188,32.602,-116.512,,,,San Diego,MTBS,WILDFIRE
1989,7/5/1989,CONCORDIA,1645,33.744,-117.402,,,,Riverside,MTBS,WILDFIRE
1989,7/14/1989,POPPET,1239,33.828,-116.876,,,,Riverside,MTBS,WILDFIRE
1989,7/28/1989,UNNAMED,1864,36.361,-121.07,,,,San Benito,MTBS,WILDFIRE
1989,8/11/1989,UNNAMED,6586,40.459,-122.808,,,,Shasta,MTBS,WILDFIRE
1989,6/14/1989,COCHEO,1510,34.881,-120.622,,,,Santa Barbara,MTBS,WILDFIRE
1989,5/31/1989,WINTERS,1038,38.552,-121.994,,,,Yolo,MTBS,WILDFIRE
1989,8/27/1989,UNNAMED,1058,39.237,-122.535,,,,Colusa,MTBS,WILDFIRE
1989,7/29/1989,UNNAMED,8742,36.933,-119.122,,,,Fresno,MTBS,WILDFIRE
1989,7/23/1989,UNNAMED,2303,33.277,-117.401,,,,San Diego,MTBS,WILDFIRE
1989,3/17/1989,UNNAMED,1791,33.41,-117.418,,,,San Diego,MTBS,WILDFIRE
1989,7/3/1989,UNNAMED,2059,38.247,-121.901,,,,Solano,MTBS,WILDFIRE
1989,6/28/1989,SAN FRANCISCO,2343,34.649,-118.384,,,,Los Angeles,MTBS,WILDFIRE
1989,7/30/1989,PACY,1403,34.404,-118.44,,,,Los Angeles,MTBS,WILDFIRE
1989,6/27/1989,ORTEGA,8503,33.621,-117.421,,,,Riverside,MTBS,WILDFIRE
1989,7/9/1989,THING 2,4650,32.857,-116.386,,,,San Diego,MTBS,WILDFIRE
1989,7/29/1989,VAIL,15632,33.421,-116.947,,,,San Diego,MTBS,WILDFIRE
1989,10/18/1989,MATEO,13280,33.508,-117.467,,,,Riverside,MTBS,WILDFIRE
1989,7/8/1989,MOLERO II,2407,36.29,-121.819,,,,Monterey,MTBS,WILDFIRE
1989,7/8/1989,RACK,3460,40.056,-120.34,,,,Plumas,MTBS,WILDFIRE
1989,7/7/1989,EAGLE,4479,40.216,-120.452,,,,Lassen,MTBS,WILDFIRE
1989,9/6/1989,LAYMAN,4637,39.841,-120.638,,,,Plumas,MTBS,WILDFIRE
1989,7/23/1989,BURROUGH,1483,36.986,-119.338,,,,Fresno,MTBS,WILDFIRE
1989,7/28/1989,POWERHOUSE,11532,37.113,-119.467,,,,Fresno,MTBS,WILDFIRE
1989,6/21/1989,UNNAMED,4912,33.637,-116.771,,,,Riverside,MTBS,WILDFIRE
1989,10/16/1989,PW3,1725,37.77,-119.77,,,,Mariposa,MTBS,WILDFIRE
1989,10/29/1989,PACIFIC,3178,34.075,-118.994,,,,Ventura,MTBS,WILDFIRE
1989,3/20/1989,UNNAMED,2674,39.037,-122.558,,,,Lake,MTBS,UNKNOWN
1989,12/1/1989,UNNAMED,2939,39.128,-122.519,,,,Lake,MTBS,UNKNOWN
1989,3/2/1989,TULE MARSH,1539,41.921,-121.507,,,,Siskiyou,MTBS,UNKNOWN
1989,7/3/1989,TURNBULL FIRE,1338,34.004,-118.002,,,,Los Angeles,MTBS,WILDFIRE
1989,11/30/1989,YORBA,7028,33.934,-117.736,,,,San Bernardino,MTBS,WILDFIRE
1990,8/7/1990,TEJON,7659,35.041,-118.608,,,,Kern,MTBS,WILDFIRE
1990,8/8/1990,SHINN,17966,40.692,-120.194,,,,Lassen,MTBS,WILDFIRE
1990,8/7/1990,KINGS,2266,40.163,-124.163,,,,Humboldt,MTBS,WILDFIRE
1990,8/6/1990,CAMPBELL,128266,40.041,-121.824,,,,Tehama,MTBS,WILDFIRE
1990,8/3/1990,TOF 33,1041,39.69,-120.067,,,,Sierra,MTBS,WILDFIRE
1990,9/10/1990,UNNAMED,1498,35.15,-120.32,,,,San Luis Obispo,MTBS,WILDFIRE
1990,8/8/1990,MATTOLE,5219,40.284,-124.156,,,,Humboldt,MTBS,WILDFIRE
1990,8/8/1990,RAINBOW,2791,40.33,-124.123,,,,Humboldt,MTBS,WILDFIRE
1990,8/8/1990,PEAKS,1734,40.355,-123.791,,,,Humboldt,MTBS,WILDFIRE
1990,9/23/1990,ISLAND,1475,40.036,-123.498,,,,Trinity,MTBS,WILDFIRE
1990,6/27/1990,CARBON CANYON FIRE,4973,33.967,-117.789,,,,San Bernardino,MTBS,WILDFIRE
1990,6/27/1990,EAGLE,2508,38.961,-122.508,,,,Lake,MTBS,WILDFIRE
1990,6/28/1990,MORRETTIS,4718,33.197,-116.66,,,,San Diego,MTBS,WILDFIRE
1990,9/10/1990,PAINT,3105,33.058,-117.144,,,,San Diego,MTBS,WILDFIRE
1990,7/17/1990,LONG GULCH,1394,37.374,-121.529,,,,Santa Clara,MTBS,WILDFIRE
1990,10/8/1990,GRAPEVINE,2367,36.552,-119.083,,,,Tulare,MTBS,WILDFIRE
1990,6/24/1990,BEDFORD,4245,33.796,-117.539,,,,Riverside,MTBS,WILDFIRE
1990,8/10/1990,CAMPBELL,4803,41.184,-121.31,,,,Modoc,MTBS,WILDFIRE
1990,6/27/1990,PAINT,4762,34.469,-119.784,,,,Santa Barbara,MTBS,WILDFIRE
1990,8/9/1990,LINN/RECER/ELKHORN,3433,39.793,-122.867,,,,Glenn,MTBS,WILDFIRE
1990,7/12/1990,CROWDER MOUNTAIN,1018,41.756,-120.549,,,,Modoc,MTBS,WILDFIRE
1990,8/6/1990,WALKER,1125,39.989,-120.701,,,,Plumas,MTBS,WILDFIRE
1990,8/5/1990,STORMY,23157,35.804,-118.526,,,,Tulare,MTBS,WILDFIRE
1990,8/8/1990,BOW,1558,40.723,-122.263,,,,Shasta,MTBS,WILDFIRE
1990,7/20/1990,KIRCH,3131,36.898,-119.179,,,,Fresno,MTBS,WILDFIRE
1990,8/30/1990,SAVAGE,2224,37.649,-119.878,,,,Mariposa,MTBS,WILDFIRE
1990,9/13/1990,COTTONWOOD COMPLEX,2517,38.005,-120.198,,,,Tuolumne,MTBS,WILDFIRE
1990,8/14/1990,ROSS,3829,41.792,-121.529,,,,Siskiyou,MTBS,WILDFIRE
1990,7/13/1990,AVALANCHE1,2560,36.763,-118.599,,,,Fresno,MTBS,WILDFIRE
1990,8/8/1990,KANAKA,3019,40.559,-122.549,,,,Shasta,MTBS,WILDFIRE
1990,8/7/1990,STEAMBOAT,6004,37.688,-119.702,,,,Mariposa,MTBS,WILDFIRE
1990,8/30/1990,UNNAMED,4885,40.159,-122.6,,,,Tehama,MTBS,UNKNOWN
1990,4/30/1990,UNNAMED,1650,40.261,-121.889,,,,Tehama,MTBS,UNKNOWN
1990,10/27/1990,CASE,2428,33.42,-117.422,,,,San Diego,MTBS,WILDFIRE
1990,11/6/1990,YOCUM,1006,33.109,-115.341,,,,Imperial,MTBS,WILDFIRE
1990,8/13/1990,LAUREL LAKE 2 AND FROG 2,1137,38.001,-119.793,,,,Tuolumne,MTBS,WILDFIRE
1990,8/8/1990,BRANHAM,9557,40.79,-120.421,,,,Lassen,MTBS,WILDFIRE
1990,8/7/1990,A-ROCK,17706,37.701,-119.79,,,,Mariposa,MTBS,WILDFIRE
1990,8/9/1990,FINLEY,22239,40.336,-121.799,,,,Tehama,MTBS,WILDFIRE
1991,6/17/1991,BARRETT,1262,32.617,-116.669,,,,San Diego,MTBS,WILDFIRE
1991,10/20/1991,GEYSERS,4993,38.765,-122.787,,,,Sonoma,MTBS,WILDFIRE
1991,10/22/1991,TUNNEL,1838,37.85,-122.227,,,,Alameda,MTBS,WILDFIRE
1991,10/20/1991,LION,1766,34.558,-119.202,,,,Ventura,MTBS,WILDFIRE
1991,8/21/1991,STOCKTON,1505,34.316,-117.604,,,,San Bernardino,MTBS,WILDFIRE
1991,9/18/1991,ROCK,1115,40.505,-123.158,,,,Trinity,MTBS,WILDFIRE
1991,9/6/1991,FROG CREEK,2970,37.98,-119.783,,,,Tuolumne,MTBS,WILDFIRE
1991,9/24/1991,ILL,3096,37.704,-119.542,,,,Mariposa,MTBS,WILDFIRE
1991,9/22/1991,BLUE MOUNTAIN,2482,36.576,-119.082,,,,Tulare,MTBS,WILDFIRE
1991,11/30/1991,LA PALOMA,3017,37.152,-120.089,,,,Madera,MTBS,WILDFIRE
1992,8/22/1992,MIDDLE RIDGE,5362,34.989,-118.657,,,,Kern,MTBS,WILDFIRE
1992,5/23/1992,HUNTER,1384,37.614,-120.197,,,,Mariposa,MTBS,WILDFIRE
1992,6/4/1992,JOLON,1579,35.92,-120.991,,,,Monterey,MTBS,WILDFIRE
1992,8/20/1992,FOUNTAIN,62340,40.846,-121.852,,,,Shasta,MTBS,WILDFIRE
1992,7/29/1992,UNNAMED,1208,35.589,-120.206,,,,San Luis Obispo,MTBS,WILDFIRE
1992,5/1/1992,UNNAMED,1106,36.865,-121.201,,,,San Benito,MTBS,WILDFIRE
1992,8/20/1992,UNNAMED,1537,38.855,-121.269,,,,Placer,MTBS,WILDFIRE
1992,8/3/1992,UNNAMED,5345,40.437,-122.806,,,,Shasta,MTBS,WILDFIRE
1992,6/21/1992,SMUD 1,1274,38.591,-121.067,,,,Sacramento,MTBS,WILDFIRE
1992,9/25/1992,VILLA,7022,39.363,-121.514,,,,Butte,MTBS,WILDFIRE
1992,9/21/1992,LIGHTENING FIRE,1278,39.233,-122.307,,,,Colusa,MTBS,WILDFIRE
1992,9/20/1992,BORAX FIRE,1496,38.987,-122.654,,,,Lake,MTBS,WILDFIRE
1992,7/12/1992,SNELLING,2214,37.457,-120.365,,,,Merced,MTBS,WILDFIRE
1992,7/19/1992,MANZANITA,1091,32.749,-116.31,,,,San Diego,MTBS,WILDFIRE
1992,9/27/1992,RAINBOW,2711,33.439,-117.119,,,,Riverside,MTBS,WILDFIRE
1992,7/17/1992,HOG 2,1441,40.221,-122.034,,,,Tehama,MTBS,WILDFIRE
1992,8/21/1992,UNNAMED,10235,35.927,-121.214,,,,Monterey,MTBS,WILDFIRE
1992,7/4/1992,UNNAMED,2072,35.98,-121.298,,,,Monterey,MTBS,WILDFIRE
1992,7/20/1992,DEVIL,1319,34.545,-118.671,,,,Los Angeles,MTBS,WILDFIRE
1992,7/18/1992,LOVELAND,1941,32.789,-116.73,,,,San Diego,MTBS,WILDFIRE
1992,9/29/1992,CLEVELAND,21835,38.833,-120.432,,,,El Dorado,MTBS,WILDFIRE
1992,8/1/1992,SECO,2684,36.22,-121.458,,,,Monterey,MTBS,WILDFIRE
1992,8/5/1992,UNNAMED,1013,36.265,-121.665,,,,Monterey,MTBS,WILDFIRE
1992,8/17/1992,SLICKROCK,2451,35.965,-121.345,,,,Monterey,MTBS,WILDFIRE
1992,9/19/1992,MARTIN,1325,41.259,-123.779,,,,Humboldt,MTBS,WILDFIRE
1992,5/31/1992,CACTUS,1226,33.685,-116.912,,,,Riverside,MTBS,WILDFIRE
1992,5/24/1992,CALL BOX,1610,35.57,-118.59,,,,Kern,MTBS,WILDFIRE
1992,8/20/1992,BARKER,5276,40.61,-123.056,,,,Trinity,MTBS,WILDFIRE
1992,8/13/1992,ITALIAN,1632,37.15,-119.419,,,,Fresno,MTBS,WILDFIRE
1992,8/16/1992,GULCH,18019,38.181,-120.477,,,,Calaveras,MTBS,WILDFIRE
1992,9/7/1992,RUBY,3988,38.145,-120.195,,,,Tuolumne,MTBS,WILDFIRE
1992,6/12/1992,TURKEYTR,1178,35.919,-119.434,,,,Tulare,MTBS,WILDFIRE
1992,6/9/1992,UNNAMED,2569,37.654,-121.528,,,,San Joaquin,MTBS,UNKNOWN
1992,3/18/1992,WALTERS,2170,33.265,-114.696,,,,Imperial,MTBS,UNKNOWN
1992,11/6/1992,BRAVO,1974,33.409,-117.523,,,,San Diego,MTBS,WILDFIRE
1992,6/22/1992,TIMBER,1271,41.633,-121.274,,,,Modoc,MTBS,WILDFIRE
1992,8/1/1992,MOCCASIN,9565,37.834,-120.297,,,,Tuolumne,MTBS,WILDFIRE
1992,8/20/1992,RAINBOW,7870,37.592,-119.078,,,,Madera,MTBS,WILDFIRE
1992,9/25/1992,BURTON,6169,39.673,-121.696,,,,Butte,MTBS,WILDFIRE
1993,5/10/1993,ELK HILLS 2,5376,35.328,-119.569,,,,Kern,MTBS,WILDFIRE
1993,5/10/1993,PGE 13,1591,36.077,-120.129,,,,Fresno,MTBS,WILDFIRE
1993,6/11/1993,METZ,1527,36.43,-121.201,,,,Monterey,MTBS,WILDFIRE
1993,6/14/1993,PIXLEY,1346,35.922,-119.365,,,,Tulare,MTBS,WILDFIRE
1993,6/20/1993,ORCHARD,22309,35.74,-120.074,,,,Kern,MTBS,WILDFIRE
1993,6/22/1993,VALLEY,3790,35.246,-119.536,,,,Kern,MTBS,WILDFIRE
1993,8/1/1993,RANCHO,5566,36.3,-121.448,,,,Monterey,MTBS,WILDFIRE
1993,11/2/1993,OLD COACH,1806,33.042,-117.014,,,,San Diego,MTBS,WILDFIRE
1993,7/20/1993,STODDARD 4,2493,34.698,-117.123,,,,San Bernardino,MTBS,WILDFIRE
1993,6/14/1993,UNNAMED,1435,35.481,-120.267,,,,San Luis Obispo,MTBS,WILDFIRE
1993,8/1/1993,UNNAMED,1855,35.548,-118.974,,,,Kern,MTBS,WILDFIRE
1993,9/2/1993,UNNAMED,1173,35.991,-119.988,,,,Kings,MTBS,WILDFIRE
1993,8/1/1993,UNNAMED,1037,36.06,-120.096,,,,Kings,MTBS,WILDFIRE
1993,6/15/1993,CASMALIA,1368,34.845,-120.563,,,,Santa Barbara,MTBS,WILDFIRE
1993,10/27/1993,MILL CREEK,4475,34.062,-117.073,,,,San Bernardino,MTBS,WILDFIRE
1993,5/10/1993,SABODAN,1950,35.025,-119.023,,,,Kern,MTBS,WILDFIRE
1993,11/2/1993,OLD TOPANGA FIRE,16780,34.07,-118.649,,,,Los Angeles,MTBS,WILDFIRE
1993,10/27/1993,CHATSWORTH FIRE,1952,34.257,-118.632,,,,Los Angeles,MTBS,WILDFIRE
1993,7/31/1993,PGE 4,5594,36.918,-120.851,,,,Merced,MTBS,WILDFIRE
1993,6/16/1993,GRADE,1640,33.222,-116.439,,,,San Diego,MTBS,WILDFIRE
1993,10/27/1993,GUEJITO,17141,33.12,-116.953,,,,San Diego,MTBS,WILDFIRE
1993,10/27/1993,LAGUNA FIRE,14587,33.592,-117.794,,,,Orange,MTBS,WILDFIRE
1993,10/26/1993,CALIFORNIA,23899,33.636,-117.027,,,,Riverside,MTBS,WILDFIRE
1993,10/27/1993,BOX SPRINGS,2788,33.976,-117.293,,,,Riverside,MTBS,WILDFIRE
1993,10/27/1993,TRIBAL,2110,33.517,-116.771,,,,Riverside,MTBS,WILDFIRE
1993,10/27/1993,STECKEL,26202,34.382,-119.153,,,,Ventura,MTBS,WILDFIRE
1993,5/13/1993,UNNAMED,3076,35.223,-119.496,,,,Kern,MTBS,WILDFIRE
1993,10/27/1993,KINNELOA,5620,34.195,-118.093,,,,Los Angeles,MTBS,WILDFIRE
1993,5/9/1993,BODEN,1424,33.146,-116.896,,,,San Diego,MTBS,WILDFIRE
1993,10/27/1993,ORTEGA,20912,33.579,-117.501,,,,Orange,MTBS,WILDFIRE
1993,9/25/1993,MARRE,44309,34.725,-119.957,,,,Santa Barbara,MTBS,WILDFIRE
1993,10/27/1993,WHEEL,1459,34.514,-119.304,,,,Ventura,MTBS,WILDFIRE
1993,10/26/1993,GREEN MEADOWS,38115,34.114,-118.977,,,,Ventura,MTBS,WILDFIRE
1993,6/22/1993,BUCK PEAK,2272,36.811,-118.574,,,,Fresno,MTBS,WILDLAND FIRE USE
1993,7/18/1993,UNNAMED,4249,32.62,-116.971,,,,San Diego,MTBS,UNKNOWN
1993,6/28/1993,UNNAMED,3164,37.658,-121.54,,,,San Joaquin,MTBS,UNKNOWN
1993,9/24/1993,WELLER,1040,35.486,-118.977,,,,Kern,MTBS,WILDFIRE
1993,8/27/1993,OPAL 2,8223,35.177,-117.148,,,,San Bernardino,MTBS,WILDFIRE
1993,11/10/1993,NORTH MOUNTAIN,1204,37.908,-119.892,,,,Tuolumne,MTBS,WILDFIRE
1993,5/9/1993,EAGLE,5784,32.981,-116.745,,,,San Diego,MTBS,WILDFIRE
1993,11/2/1993,REPPLIER,5817,33.967,-116.92,,,,Riverside,MTBS,WILDFIRE
1994,5/23/1994,SODA,3423,35.206,-119.917,,,,San Luis Obispo,MTBS,WILDFIRE
1994,5/30/1994,BRECKENRIDGE,2447,35.376,-118.805,,,,Kern,MTBS,WILDFIRE
1994,6/12/1994,YORK,1022,35.851,-120.179,,,,Kings,MTBS,WILDFIRE
1994,6/14/1994,LAKELAND,2717,35.642,-118.442,,,,Kern,MTBS,WILDFIRE
1994,6/21/1994,WHITE BLANKET,2564,35.747,-118.177,,,,Kern,MTBS,WILDFIRE
1994,7/30/1994,ALISO,3404,34.909,-119.729,,,,Santa Barbara,MTBS,WILDFIRE
1994,8/7/1994,KELSEY,1001,38.813,-120.801,,,,El Dorado,MTBS,WILDFIRE
1994,8/14/1994,41,48441,35.392,-120.683,,,,San Luis Obispo,MTBS,WILDFIRE
1994,9/8/1994,SPANISH,3266,35.004,-119.936,,,,Santa Barbara,MTBS,WILDFIRE
1994,6/24/1994,BAILEY,7092,33.448,-116.665,,,,Riverside,MTBS,WILDFIRE
1994,7/24/1994,GILMAN,2161,33.929,-117.074,,,,Riverside,MTBS,WILDFIRE
1994,8/13/1994,OPAL 2,1458,35.155,-117.112,,,,San Bernardino,MTBS,WILDFIRE
1994,6/3/1994,DOYLE,2112,40.014,-120.136,,,,Lassen,MTBS,WILDFIRE
1994,7/23/1994,TABLE,2214,41.254,-120.433,,,,Modoc,MTBS,WILDFIRE
1994,8/31/1994,NELSON,2633,41.272,-120.447,,,,Modoc,MTBS,WILDFIRE
1994,9/18/1994,LMU LGT66,2114,40.755,-120.623,,,,Lassen,MTBS,WILDFIRE
1994,10/13/1994,MT. STAKES,1470,37.324,-121.428,,,,Santa Clara,MTBS,WILDFIRE
1994,7/3/1994,UNNAMED,1010,35.399,-119.96,,,,San Luis Obispo,MTBS,WILDFIRE
1994,7/3/1994,UNNAMED,2908,35.427,-120.031,,,,San Luis Obispo,MTBS,WILDFIRE
1994,6/24/1994,UNNAMED,1591,35.593,-120.388,,,,San Luis Obispo,MTBS,WILDFIRE
1994,7/1/1994,UNNAMED,1742,38.608,-121.191,,,,Sacramento,MTBS,WILDFIRE
1994,8/14/1994,UNNAMED,1043,34.305,-117.18,,,,San Bernardino,MTBS,WILDFIRE
1994,6/24/1994,BASHAM,1338,35.904,-120.716,,,,Monterey,MTBS,WILDFIRE
1994,6/11/1994,TABLE,1209,39.549,-121.572,,,,Butte,MTBS,WILDFIRE
1994,10/9/1994,OTAY,2229,32.604,-116.925,,,,San Diego,MTBS,WILDFIRE
1994,1/12/1994,ROCOSO,2233,32.892,-116.98,,,,San Diego,MTBS,WILDFIRE
1994,6/27/1994,FAIRVIEW,1676,33.692,-116.867,,,,Riverside,MTBS,WILDFIRE
1994,6/27/1994,GILMAN,2121,33.82,-116.947,,,,Riverside,MTBS,WILDFIRE
1994,10/9/1994,OAK HILL,1987,34.731,-120.446,,,,Santa Barbara,MTBS,WILDFIRE
1994,8/11/1994,WHEEL 1  2,1484,37.641,-121.472,,,,San Joaquin,MTBS,WILDFIRE
1994,7/12/1994,BROWNS,1782,40.721,-122.863,,,,Trinity,MTBS,WILDFIRE
1994,6/29/1994,COPPER 8,1750,37.988,-120.631,,,,Calaveras,MTBS,WILDFIRE
1994,6/25/1994,SCOUT,3488,34.39,-117.642,,,,San Bernardino,MTBS,WILDFIRE
1994,6/25/1994,SHOOTING,4094,34.46,-118.045,,,,Los Angeles,MTBS,WILDFIRE
1994,6/26/1994,SECOND,5351,33.182,-116.832,,,,San Diego,MTBS,WILDFIRE
1994,7/21/1994,BEAR,1697,41.724,-123.546,,,,Siskiyou,MTBS,WILDFIRE
1994,7/22/1994,JACK 1,28007,41.623,-123.61,,,,Siskiyou,MTBS,WILDFIRE
1994,9/19/1994,SPECIMEN,7156,41.363,-123.151,,,,Siskiyou,MTBS,WILDFIRE
1994,9/18/1994,BARKLEY,44256,40.12,-121.756,,,,Tehama,MTBS,WILDFIRE
1994,8/27/1994,SUGARFOOT,2776,39.883,-122.79,,,,Tehama,MTBS,WILDFIRE
1994,7/1/1994,PALM,21040,33.641,-116.522,,,,Riverside,MTBS,WILDFIRE
1994,7/3/1994,DEVILS,12778,34.337,-117.102,,,,San Bernardino,MTBS,WILDFIRE
1994,8/24/1994,BIG CREEK,5401,37.214,-119.273,,,,Fresno,MTBS,WILDFIRE
1994,8/9/1994,CREEK,1498,38.066,-120.334,,,,Tuolumne,MTBS,WILDFIRE
1994,8/4/1994,CRYSTAL,7387,39.519,-120.037,,,,Sierra,MTBS,WILDFIRE
1994,8/11/1994,HIRSCHDALE,1273,39.399,-120.065,,,,Nevada,MTBS,WILDFIRE
1994,8/16/1994,COTTONWOOD,47912,39.601,-120.193,,,,Sierra,MTBS,WILDFIRE
1994,6/19/1994,UNNAMED,1575,33.706,-116.804,,,,Riverside,MTBS,WILDFIRE
1994,6/1/1994,UNNAMED,1807,34.619,-119.688,,,,Santa Barbara,MTBS,WILDFIRE
1994,6/28/1994,FORT PIUTE,6350,35.259,-115.023,,,,San Bernardino,MTBS,WILDFIRE
1994,8/5/1994,PINNACLES,1131,36.467,-121.205,,,,San Benito,MTBS,WILDFIRE
1994,8/9/1994,HORIZON,3246,37.655,-119.536,,,,Mariposa,MTBS,WILDFIRE
1994,1/21/1994,TULE MARSH,2129,41.923,-121.51,,,,Siskiyou,MTBS,UNKNOWN
1994,10/8/1994,AGUA DULCE,1180,34.443,-118.353,,,,Los Angeles,MTBS,WILDFIRE
1994,10/3/1994,FORT,1042,35.06,-118.662,,,,Kern,MTBS,WILDFIRE
1994,9/12/1994,WYLE,1393,37.149,-119.528,,,,Madera,MTBS,WILDFIRE
1994,4/25/1994,SMOOT,1666,35.481,-118.953,,,,Kern,MTBS,WILDFIRE
1994,6/27/1994,LUCAS COMPLEX,9181,35.481,-118.691,,,,Kern,MTBS,WILDFIRE
1994,1/18/1994,NORTH MOUNTAIN,2678,37.911,-119.898,,,,Tuolumne,MTBS,WILDFIRE
1995,6/23/1995,LOST LAKE,2846,34.02,-114.462,,,,Riverside,MTBS,WILDFIRE
1995,5/29/1995,SHERWOOD,1206,35.628,-119.052,,,,Kern,MTBS,WILDFIRE
1995,6/1/1995,46,4654,35.624,-119.789,,,,Kern,MTBS,WILDFIRE
1995,5/8/1995,NEES,1160,36.845,-120.804,,,,Merced,MTBS,WILDFIRE
1995,6/25/1995,ELK,1810,35.028,-119.506,,,,San Luis Obispo,MTBS,WILDFIRE
1995,7/16/1995,PEORIA,3496,37.926,-120.503,,,,Tuolumne,MTBS,WILDFIRE
1995,7/17/1995,ROCKY,1837,35.481,-118.751,,,,Kern,MTBS,WILDFIRE
1995,7/28/1995,GILBREATH,1373,35.688,-119.611,,,,Kern,MTBS,WILDFIRE
1995,7/30/1995,LOPEZ,1627,34.985,-118.482,,,,Kern,MTBS,WILDFIRE
1995,8/4/1995,VERBENIA,21601,34.001,-116.674,,,,Riverside,MTBS,WILDFIRE
1995,10/4/1995,GUNTLEY,2351,39.207,-123.103,,,,Mendocino,MTBS,WILDFIRE
1995,9/24/1995,UNNAMED,1923,35.073,-120.299,,,,San Luis Obispo,MTBS,WILDFIRE
1995,6/1/1995,SIMMLER,1211,35.271,-119.974,,,,San Luis Obispo,MTBS,WILDFIRE
1995,8/15/1995,HONOLULU,3103,35.248,-119.521,,,,Kern,MTBS,WILDFIRE
1995,7/21/1995,PILGRIM,2214,34.006,-117.212,,,,San Bernardino,MTBS,WILDFIRE
1995,10/4/1995,HWY 149,1968,39.556,-121.64,,,,Butte,MTBS,WILDFIRE
1995,8/29/1995,KELLER,1138,35.152,-118.547,,,,Kern,MTBS,WILDFIRE
1995,10/5/1995,FREEWAY FIRE NO II,1200,34.442,-118.38,,,,Los Angeles,MTBS,WILDFIRE
1995,7/29/1995,FOREST GATE,1150,32.592,-116.489,,,,San Diego,MTBS,WILDFIRE
1995,7/16/1995,SYCAMORE,2141,32.91,-117.014,,,,San Diego,MTBS,WILDFIRE
1995,8/31/1995,POWAY,1738,32.973,-116.95,,,,San Diego,MTBS,WILDFIRE
1995,6/23/1995,EXCELSIOR,2045,33.945,-116.742,,,,Riverside,MTBS,WILDFIRE
1995,7/2/1995,NICHOLS,1111,33.721,-117.353,,,,Riverside,MTBS,WILDFIRE
1995,7/20/1995,DAWSON,4655,33.762,-117.425,,,,Riverside,MTBS,WILDFIRE
1995,7/22/1995,HWY 62,1197,33.955,-116.617,,,,Riverside,MTBS,WILDFIRE
1995,7/27/1995,STANLEY,3382,33.541,-116.876,,,,Riverside,MTBS,WILDFIRE
1995,7/27/1995,RECHE,1174,33.989,-117.245,,,,Riverside,MTBS,WILDFIRE
1995,10/22/1995,ORESTIMBA,2830,37.301,-121.316,,,,Stanislaus,MTBS,WILDFIRE
1995,10/27/1995,BALD,3336,35.122,-120.335,,,,San Luis Obispo,MTBS,WILDFIRE
1995,6/19/1995,BUTTERFIELD,7165,32.941,-116.431,,,,San Diego,MTBS,WILDFIRE
1995,8/27/1995,EL MONTE,8482,32.914,-116.782,,,,San Diego,MTBS,WILDFIRE
1995,10/13/1995,WARNER,2671,33.339,-116.725,,,,San Diego,MTBS,WILDFIRE
1995,6/14/1995,POLE,4077,37.38,-118.613,,,,Inyo,MTBS,WILDFIRE
1995,8/1/1995,PONY,2191,41.63,-123.577,,,,Siskiyou,MTBS,WILDFIRE
1995,7/26/1995,CROWDER,1320,34.329,-117.471,,,,San Bernardino,MTBS,WILDFIRE
1995,9/25/1995,APACHE,3652,33.888,-116.698,,,,Riverside,MTBS,WILDFIRE
1995,10/13/1995,BLUFF,2675,34.007,-116.946,,,,San Bernardino,MTBS,WILDFIRE
1995,7/31/1995,COVINGTON,5457,34.057,-116.3,,,,San Bernardino,MTBS,WILDFIRE
1995,10/3/1995,VISION,12225,38.05,-122.864,,,,Marin,MTBS,WILDFIRE
1995,6/22/1995,UNNAMED,1068,35.017,-116.843,,,,San Bernardino,MTBS,UNKNOWN
1995,8/5/1995,UNNAMED,2158,37.664,-121.54,,,,San Joaquin,MTBS,UNKNOWN
1995,8/5/1995,ROUSE,1061,34.303,-117.144,,,,San Bernardino,MTBS,WILDFIRE
1995,8/30/1995,SYCAMORE,9626,32.607,-116.727,,,,San Diego,MTBS,WILDFIRE
1995,8/15/1995,MIDWAY,7785,35.326,-119.502,,,,Kern,MTBS,WILDFIRE
1996,6/22/1996,UNNAMED,1604,35.14,-119.794,,,,San Luis Obispo,MTBS,WILDFIRE
1996,4/15/1996,PANOCHE,1716,36.631,-120.678,,,,Fresno,MTBS,WILDFIRE
1996,4/27/1996,SKYLINE,21694,36,-120.041,,,,Kings,MTBS,WILDFIRE
1996,4/27/1996,PANOCHE II,14760,36.575,-120.627,,,,Fresno,MTBS,WILDFIRE
1996,5/20/1996,OVERLOOK,2901,35.209,-119.91,,,,San Luis Obispo,MTBS,WILDFIRE
1996,5/23/1996,SEVEN MILE,2716,35.262,-119.86,,,,San Luis Obispo,MTBS,WILDFIRE
1996,5/22/1996,HWY 33 II,3354,35.807,-120.016,,,,Kings,MTBS,WILDFIRE
1996,5/23/1996,MESA COMPLEX,5492,35.396,-118.884,,,,Kern,MTBS,WILDFIRE
1996,6/4/1996,CANYON,3486,35.435,-118.761,,,,Kern,MTBS,WILDFIRE
1996,6/17/1996,ROUND MOUNTAIN,2506,35.479,-118.909,,,,Kern,MTBS,WILDFIRE
1996,6/18/1996,MERCY,16993,36.863,-120.824,,,,Merced,MTBS,WILDFIRE
1996,7/4/1996,GOOSE,1667,35.705,-119.635,,,,Kern,MTBS,WILDFIRE
1996,7/8/1996,WALKER COMPLEX,2593,38.582,-119.529,,,,Mono,MTBS,WILDFIRE
1996,7/19/1996,GILBRETH,4685,35.674,-119.596,,,,Kern,MTBS,WILDFIRE
1996,8/1/1996,BOREL,2760,35.589,-118.564,,,,Kern,MTBS,WILDFIRE
1996,8/8/1996,AIRPORT 2,1059,35.352,-119.547,,,,Kern,MTBS,WILDFIRE
1996,8/13/1996,KAWEAH,4590,36.493,-118.866,,,,Tulare,MTBS,WILDFIRE
1996,8/12/1996,RIMROCK,2698,38.305,-120.431,,,,Calaveras,MTBS,WILDFIRE
1996,10/28/1996,WESTFIELD,1478,35.023,-119.377,,,,Kern,MTBS,WILDFIRE
1996,7/23/1996,WHITEOAK,8404,34.948,-118.473,,,,Kern,MTBS,WILDFIRE
1996,5/3/1996,BARSTOW,1060,34.575,-117.018,,,,San Bernardino,MTBS,WILDFIRE
1996,10/22/1996,OTAY 322,10205,32.592,-116.871,,,,San Diego,MTBS,WILDFIRE
1996,7/2/1996,BYERS,1180,40.342,-120.458,,,,Lassen,MTBS,WILDFIRE
1996,5/23/1996,UNNAMED,1087,33.89,-117.147,,,,Riverside,MTBS,WILDFIRE
1996,5/12/1996,UNNAMED,1086,36.964,-120.904,,,,Merced,MTBS,WILDFIRE
1996,10/26/1996,UNNAMED,2879,38.829,-121.973,,,,Yolo,MTBS,WILDFIRE
1996,5/1/1996,HWY 41,5214,35.901,-119.999,,,,Kings,MTBS,WILDFIRE
1996,10/20/1996,PALERMO,1162,39.357,-121.511,,,,Butte,MTBS,WILDFIRE
1996,8/16/1996,DIXIE FIRE,1326,40.857,-120.921,,,,Lassen,MTBS,WILDFIRE
1996,8/2/1996,PGE 8,2323,38.349,-122.452,,,,Sonoma,MTBS,WILDFIRE
1996,10/26/1996,GATES,1516,38.395,-122.055,,,,Solano,MTBS,WILDFIRE
1996,4/21/1996,SHEEP,1342,33.374,-116.518,,,,San Diego,MTBS,WILDFIRE
1996,10/21/1996,RINCON,2275,33.258,-116.96,,,,San Diego,MTBS,WILDFIRE
1996,1/10/1996,HONEY,3174,32.683,-116.806,,,,San Diego,MTBS,WILDFIRE
1996,6/2/1996,DRIP,1198,33.47,-116.966,,,,Riverside,MTBS,WILDFIRE
1996,6/29/1996,PECHANGA,1479,33.461,-117.081,,,,Riverside,MTBS,WILDFIRE
1996,6/29/1996,CIRCLE,1039,33.895,-116.925,,,,Riverside,MTBS,WILDFIRE
1996,6/30/1996,KITCHING,1363,33.961,-117.201,,,,Riverside,MTBS,WILDFIRE
1996,7/20/1996,PHILADELPHIA,1825,34.032,-117.465,,,,Riverside,MTBS,WILDFIRE
1996,8/12/1996,WOLFSKILL,13015,33.856,-116.943,,,,Riverside,MTBS,WILDFIRE
1996,8/29/1996,DOUBLE,1365,33.729,-117.118,,,,Riverside,MTBS,WILDFIRE
1996,8/12/1996,LIGHTNING 12,1226,38.014,-120.573,,,,Calaveras,MTBS,WILDFIRE
1996,6/8/1996,UNNAMED,1075,35.438,-117.316,,,,San Bernardino,MTBS,WILDFIRE
1996,6/29/1996,BICHOTA COMPLEX (BICHOTA),1154,34.274,-117.824,,,,Los Angeles,MTBS,WILDFIRE
1996,8/24/1996,RESERVOIR,1532,34.196,-117.879,,,,Los Angeles,MTBS,WILDFIRE
1996,8/26/1996,MARPLE,20416,34.586,-118.663,,,,Los Angeles,MTBS,WILDFIRE
1996,7/15/1996,SAGE FLAT,1454,36.222,-118.047,,,,Inyo,MTBS,WILDFIRE
1996,4/28/1996,GRAND,10070,34.431,-118.977,,,,Ventura,MTBS,WILDFIRE
1996,7/3/1996,WASIOJA,2989,34.919,-119.806,,,,Santa Barbara,MTBS,WILDFIRE
1996,7/3/1996,CUYAMA,1663,34.92,-119.672,,,,Santa Barbara,MTBS,WILDFIRE
1996,7/11/1996,GORGE,1716,34.592,-118.773,,,,Los Angeles,MTBS,WILDFIRE
1996,8/15/1996,FIFTY-EIGHT,94698,35.344,-120.276,,,,San Luis Obispo,MTBS,WILDFIRE
1996,10/7/1996,WILD,24439,35.959,-121.388,,,,Monterey,MTBS,WILDFIRE
1996,10/18/1996,SUR,4214,36.259,-121.739,,,,Monterey,MTBS,WILDFIRE
1996,8/11/1996,FORK,83209,39.202,-122.744,,,,Lake,MTBS,WILDFIRE
1996,8/26/1996,AMBROSE COMPLEX (DAMON-LONG),24090,41.555,-121.25,,,,Modoc,MTBS,WILDFIRE
1996,8/28/1996,DALTON 3,2927,41.748,-121.063,,,,Modoc,MTBS,WILDFIRE
1996,7/25/1996,MADALANNA,4495,39.85,-120.248,,,,Plumas,MTBS,WILDFIRE
1996,8/9/1996,COOKS,1271,40.195,-120.84,,,,Plumas,MTBS,WILDFIRE
1996,6/29/1996,BEE,10113,33.758,-116.821,,,,Riverside,MTBS,WILDFIRE
1996,7/1/1996,DIEGO,1185,33.588,-116.784,,,,Riverside,MTBS,WILDFIRE
1996,6/24/1996,SIERRA,1151,35.763,-118.406,,,,Kern,MTBS,WILDFIRE
1996,8/18/1996,CHOLOLLO,2850,36.063,-118.664,,,,Tulare,MTBS,WILDFIRE
1996,8/14/1996,ROCK,2251,40.189,-123.009,,,,Trinity,MTBS,WILDFIRE
1996,8/1/1996,STUMPFIELD,2949,37.426,-119.817,,,,Mariposa,MTBS,WILDFIRE
1996,8/17/1996,TRIMMER,5694,36.893,-119.346,,,,Fresno,MTBS,WILDFIRE
1996,8/14/1996,ROGGE,17559,37.899,-120.113,,,,Tuolumne,MTBS,WILDFIRE
1996,8/14/1996,ACKERSON COMPLEX (ACKERSON),58161,37.913,-119.818,,,,Tuolumne,MTBS,WILDFIRE
1996,8/10/1996,HORSE,2602,41.906,-121.286,,,,Modoc,MTBS,WILDFIRE
1996,10/21/1996,CALABASAS,12239,34.054,-118.717,,,,Los Angeles,MTBS,WILDFIRE
1996,6/8/1996,UNNAMED,1119,33.436,-117.542,,,,San Diego,MTBS,UNKNOWN
1996,9/12/1996,UNNAMED,1411,33.89,-116.802,,,,Riverside,MTBS,UNKNOWN
1996,5/12/1996,UNNAMED,1460,36.208,-120.377,,,,Fresno,MTBS,UNKNOWN
1996,5/12/1996,UNNAMED,2603,36.197,-120.284,,,,Fresno,MTBS,UNKNOWN
1996,7/6/1996,UNNAMED,2043,37.648,-121.526,,,,San Joaquin,MTBS,UNKNOWN
1996,10/27/1996,UNNAMED,1018,39.174,-121.795,,,,Sutter,MTBS,UNKNOWN
1996,10/3/1996,COYOTE CREEK,1494,41.135,-123.883,,,,Humboldt,MTBS,WILDFIRE
1996,9/1/1996,UNNAMED,5260,37.862,-120.483,,,,Tuolumne,MTBS,UNKNOWN
1996,8/12/1996,BASE LINE,3327,37.906,-120.534,,,,Tuolumne,MTBS,WILDFIRE
1996,11/30/1996,DRY CREEK,1275,37.558,-120.539,,,,Merced,MTBS,WILDFIRE
1996,5/1/1996,HWY 41,9537,35.811,-120.798,,,,Monterey,MTBS,WILDFIRE
1996,8/2/1996,SCOTT,8828,38.565,-121.047,,,,El Dorado,MTBS,WILDFIRE
1996,10/21/1996,HARMONY,9289,33.095,-117.191,,,,San Diego,MTBS,WILDFIRE
1996,5/28/1996,UNNAMED,19243,35.944,-121.231,,,,Monterey,MTBS,WILDFIRE
1997,6/20/1997,MIDWAY COMPLEX,6791,35.226,-119.522,,,,Kern,MTBS,WILDFIRE
1997,7/4/1997,TOWER,1536,35.69,-118.412,,,,Kern,MTBS,WILDFIRE
1997,8/9/1997,JACKS,5342,35.623,-118.088,,,,Kern,MTBS,WILDFIRE
1997,8/10/1997,POSO,2261,35.525,-118.997,,,,Kern,MTBS,WILDFIRE
1997,8/19/1997,CHOCKTAW,10235,35.459,-118.879,,,,Kern,MTBS,WILDFIRE
1997,9/19/1997,AMERICAN,1609,35.187,-119.896,,,,San Luis Obispo,MTBS,WILDFIRE
1997,9/27/1997,WILLIAMS,6329,39.377,-121.252,,,,Yuba,MTBS,WILDFIRE
1997,5/8/1997,COTTONWD 2,2437,35.398,-118.769,,,,Kern,MTBS,WILDFIRE
1997,9/24/1997,JACK RABBIT,1672,33.937,-117.071,,,,Riverside,MTBS,WILDFIRE
1997,6/9/1997,UNNAMED,1188,35.721,-120.017,,,,Kern,MTBS,WILDFIRE
1997,6/9/1997,UNNAMED,1079,35.981,-119.974,,,,Kings,MTBS,WILDFIRE
1997,5/31/1997,UNNAMED,1821,36.297,-121.132,,,,Monterey,MTBS,WILDFIRE
1997,10/31/1997,HALOWEEN,1154,34.706,-120.577,,,,Santa Barbara,MTBS,WILDFIRE
1997,9/27/1997,AZALEA,1368,34.71,-120.494,,,,Santa Barbara,MTBS,WILDFIRE
1997,8/14/1997,SCOTCH,1512,34.027,-117.238,,,,San Bernardino,MTBS,WILDFIRE
1997,5/19/1997,GROVE,1501,36.924,-119.714,,,,Fresno,MTBS,WILDFIRE
1997,5/22/1997,GRANITE,1445,35.537,-118.953,,,,Kern,MTBS,WILDFIRE
1997,9/4/1997,MARGARITA,1120,33.447,-117.298,,,,San Diego,MTBS,WILDFIRE
1997,9/24/1997,DEL DIOS,1207,33.084,-117.13,,,,San Diego,MTBS,WILDFIRE
1997,8/31/1997,PAUBA,7497,33.522,-116.943,,,,Riverside,MTBS,WILDFIRE
1997,5/9/1997,BEACH,1685,33.899,-117.151,,,,Riverside,MTBS,WILDFIRE
1997,8/20/1997,SANTA ROSA,2829,34.634,-120.33,,,,Santa Barbara,MTBS,WILDFIRE
1997,9/23/1997,RANGE,1285,34.584,-120.285,,,,Santa Barbara,MTBS,WILDFIRE
1997,7/1/1997,CANYON 2,5173,34.194,-117.906,,,,Los Angeles,MTBS,WILDFIRE
1997,8/13/1997,NARROWS,18248,34.331,-117.71,,,,Los Angeles,MTBS,WILDFIRE
1997,8/4/1997,LOGAN,49627,35.113,-120.103,,,,San Luis Obispo,MTBS,WILDFIRE
1997,8/5/1997,HOPPER,24072,34.476,-118.816,,,,Ventura,MTBS,WILDFIRE
1997,7/5/1997,HEMLOCK,4097,34.17,-117.211,,,,San Bernardino,MTBS,WILDFIRE
1997,9/13/1997,MILL,1369,34.193,-117.14,,,,San Bernardino,MTBS,WILDFIRE
1997,8/6/1997,CHOKE,3433,36.852,-118.712,,,,Fresno,MTBS,WILDFIRE
1997,9/24/1997,COFFEE,2250,36.162,-118.758,,,,Tulare,MTBS,WILDFIRE
1997,5/8/1997,UNNAMED,1172,34.8,-119.676,,,,Santa Barbara,MTBS,WILDFIRE
1997,7/30/1997,HUFFER,2272,40.514,-121.282,,,,Lassen,MTBS,WILDLAND FIRE USE
1997,9/18/1997,KIBBIE 2,2481,38.031,-119.841,,,,Tuolumne,MTBS,WILDFIRE
1997,10/27/1997,ASPEN VALLEY,1788,37.822,-119.786,,,,Tuolumne,MTBS,WILDFIRE
1997,7/18/1997,UNNAMED,1862,35.915,-121.24,,,,Monterey,MTBS,UNKNOWN
1997,2/12/1997,TULE MARSH,2133,41.923,-121.511,,,,Siskiyou,MTBS,UNKNOWN
1997,9/9/1997,OSO,1136,34.843,-118.808,,,,Kern,MTBS,WILDFIRE
1997,10/22/1997,NORTH COW,3335,39.144,-123.107,,,,Mendocino,MTBS,WILDFIRE
1997,10/13/1997,BAKER,5568,33.769,-117.696,,,,Orange,MTBS,WILDFIRE
1998,8/31/1998,WILDCAT,3622,32.968,-116.851,,,,San Diego,MTBS,WILDFIRE
1998,8/3/1998,STONEWALL,2974,36.471,-121.152,,,,San Benito,MTBS,WILDFIRE
1998,8/1/1998,GARLOCK 2,1535,35.363,-117.793,,,,Kern,MTBS,WILDFIRE
1998,10/5/1998,EDNA,27561,33.896,-116.995,,,,Riverside,MTBS,WILDFIRE
1998,8/29/1998,MIDDLE,6385,38.931,-122.296,,,,Colusa,MTBS,WILDFIRE
1998,8/15/1998,UNNAMED,1757,35.689,-119.609,,,,Kern,MTBS,WILDFIRE
1998,8/15/1998,UNNAMED,1595,35.988,-119.979,,,,Kings,MTBS,WILDFIRE
1998,7/30/1998,UNNAMED,1792,36.027,-120.105,,,,Kings,MTBS,WILDFIRE
1998,7/27/1998,STALLION FIRE,1041,34.028,-117.243,,,,San Bernardino,MTBS,WILDFIRE
1998,6/11/1998,UNNAMED,8950,35.814,-120.797,,,,Monterey,MTBS,WILDFIRE
1998,7/8/1998,BRECK,3475,35.371,-118.787,,,,Kern,MTBS,WILDFIRE
1998,7/11/1998,AERA,2063,35.548,-118.974,,,,Kern,MTBS,WILDFIRE
1998,9/2/1998,BRECKENRIDGE,1335,35.407,-118.791,,,,Kern,MTBS,WILDFIRE
1998,7/10/1998,MERCY,5005,36.882,-120.813,,,,Merced,MTBS,WILDFIRE
1998,7/17/1998,SUMMIT,1045,32.605,-116.733,,,,San Diego,MTBS,WILDFIRE
1998,9/4/1998,BEALE ASSIST,1294,39.148,-121.403,,,,Yuba,MTBS,WILDFIRE
1998,8/9/1998,COUNTRY,1346,34.027,-117.483,,,,Riverside,MTBS,WILDFIRE
1998,8/31/1998,JUNIPER,6441,33.769,-117.08,,,,Riverside,MTBS,WILDFIRE
1998,8/31/1998,WEIRICK,2498,33.814,-117.483,,,,Riverside,MTBS,WILDFIRE
1998,10/5/1998,TAYLOR,2040,33.982,-117.022,,,,Riverside,MTBS,WILDFIRE
1998,5/4/1998,GREENRIDGE 6,1468,37.831,-121.716,,,,Contra Costa,MTBS,WILDFIRE
1998,8/29/1998,580,1108,37.728,-121.663,,,,Alameda,MTBS,WILDFIRE
1998,8/2/1998,POWERHOUSE,1708,40.411,-121.899,,,,Tehama,MTBS,WILDFIRE
1998,8/2/1998,MANTON 3,1379,40.368,-122.005,,,,Tehama,MTBS,WILDFIRE
1998,10/18/1998,PIRU,10413,34.422,-118.872,,,,Ventura,MTBS,WILDFIRE
1998,7/16/1998,UNNAMED,1710,33.333,-117.394,,,,San Diego,MTBS,WILDFIRE
1998,7/16/1998,UNNAMED,1914,33.425,-117.454,,,,San Diego,MTBS,WILDFIRE
1998,8/6/1998,UNNAMED,5341,35.933,-121.17,,,,Monterey,MTBS,WILDFIRE
1998,7/21/1998,UNNAMED,2861,35.988,-121.299,,,,Monterey,MTBS,WILDFIRE
1998,8/29/1998,TOM,3366,37.322,-118.618,,,,Inyo,MTBS,WILDFIRE
1998,10/16/1998,OGILVY,4048,34.613,-119.625,,,,Santa Barbara,MTBS,WILDFIRE
1998,8/22/1998,NORTH CROWDER,2589,41.762,-120.552,,,,Modoc,MTBS,WILDFIRE
1998,10/16/1998,UNNAMED,1942,34.566,-119.689,,,,Santa Barbara,MTBS,WILDFIRE
1998,8/27/1998,COYOTE,1824,41.139,-123.879,,,,Humboldt,MTBS,WILDFIRE
1998,10/13/1998,ASPEN PW 2,3011,37.807,-119.799,,,,Tuolumne,MTBS,WILDFIRE
1998,9/2/1998,UNNAMED,7099,33.721,-117.682,,,,Orange,MTBS,UNKNOWN
1998,8/4/1998,REFUGE,9960,41.884,-121.656,,,,Siskiyou,MTBS,UNKNOWN
1998,8/31/1998,YANKEE,1375,35.64,-118.448,,,,Kern,MTBS,WILDFIRE
1999,9/8/1999,RICH BAR COMPLEX,2209,35.451,-118.767,,,,Kern,MTBS,WILDFIRE
1999,7/6/1999,ELLIOT,2305,34.336,-117.413,,,,San Bernardino,MTBS,WILDFIRE
1999,10/3/1999,SHOCKEY,3522,32.608,-116.406,,,,San Diego,MTBS,WILDFIRE
1999,8/23/1999,DOE MILL,11590,39.757,-121.715,,,,Butte,MTBS,WILDFIRE
1999,8/23/1999,BLOOMER,2814,39.645,-121.476,,,,Butte,MTBS,WILDFIRE
1999,8/23/1999,SOUTH,2151,39.532,-121.414,,,,Butte,MTBS,WILDFIRE
1999,7/2/1999,LOWDEN,1851,40.693,-122.816,,,,Trinity,MTBS,WILDFIRE
1999,8/4/1999,RAVE,4870,40.8,-120.101,,,,Lassen,MTBS,WILDFIRE
1999,8/23/1999,WILLOW,7139,40.598,-120.628,,,,Lassen,MTBS,WILDFIRE
1999,8/23/1999,SPRING,6597,40.381,-122.095,,,,Tehama,MTBS,WILDFIRE
1999,10/16/1999,SIXTEEN,37162,38.803,-122.328,,,,Napa,MTBS,WILDFIRE
1999,9/6/1999,CEMETERY,3758,39.815,-120.088,,,,Lassen,MTBS,WILDFIRE
1999,7/26/1999,UNNAMED,1062,34.89,-118.921,,,,Kern,MTBS,WILDFIRE
1999,6/5/1999,UNNAMED,1240,40.35,-122.053,,,,Tehama,MTBS,WILDFIRE
1999,8/23/1999,MUSTY,16846,39.837,-121.749,,,,Butte,MTBS,WILDFIRE
1999,8/22/1999,WOODLAND,1031,39.858,-121.697,,,,Butte,MTBS,WILDFIRE
1999,7/13/1999,WATTS,1282,36.79,-119.472,,,,Fresno,MTBS,WILDFIRE
1999,8/29/1999,SHANNON,3554,34.552,-118.186,,,,Los Angeles,MTBS,WILDFIRE
1999,9/28/1999,RUMSEY,3084,38.881,-122.256,,,,Yolo,MTBS,WILDFIRE
1999,5/22/1999,BELL WEST,1746,41.456,-121.427,,,,Modoc,MTBS,WILDFIRE
1999,6/18/1999,ROMERO,1863,37.107,-121.097,,,,Merced,MTBS,WILDFIRE
1999,9/30/1999,PROCTOR,1548,32.692,-116.918,,,,San Diego,MTBS,WILDFIRE
1999,9/25/1999,LAKE2,2996,41.624,-120.087,,,,Modoc,MTBS,WILDFIRE
1999,6/22/1999,RED,1641,40.107,-122.425,,,,Tehama,MTBS,WILDFIRE
1999,7/11/1999,PELLOWS,1166,39.936,-122.61,,,,Tehama,MTBS,WILDFIRE
1999,8/23/1999,PASKENTA,1013,40.139,-122.27,,,,Tehama,MTBS,WILDFIRE
1999,8/23/1999,JELLYS 2,1703,40.304,-122.195,,,,Tehama,MTBS,WILDFIRE
1999,7/17/1999,HOLSER,2528,34.461,-118.728,,,,Ventura,MTBS,WILDFIRE
1999,12/4/1999,BRADLEY,3256,34.312,-119.042,,,,Ventura,MTBS,WILDFIRE
1999,8/16/1999,NORTH PARK COMPLEX (ELEANOR),2494,38.008,-119.84,,,,Tuolumne,MTBS,WILDFIRE
1999,8/29/1999,BRIDGE,6845,34.239,-117.866,,,,Los Angeles,MTBS,WILDFIRE
1999,8/14/1999,LAGUNA 100,4586,32.899,-116.407,,,,San Diego,MTBS,WILDFIRE
1999,9/30/1999,LA JOLLA,7231,33.273,-116.792,,,,San Diego,MTBS,WILDFIRE
1999,3/30/1999,DIVISION,3311,36.937,-118.288,,,,Inyo,MTBS,WILDFIRE
1999,7/24/1999,EAST,1287,41.752,-123.34,,,,Siskiyou,MTBS,WILDFIRE
1999,8/23/1999,TEHAMA-GLENN COMPLEX (DEHAVEN GULCH),17247,40.284,-121.945,,,,Tehama,MTBS,WILDFIRE
1999,9/28/1999,GUN 2,61203,40.179,-121.804,,,,Tehama,MTBS,WILDFIRE
1999,7/18/1999,SPANISH,14518,35.021,-119.983,,,,Santa Barbara,MTBS,WILDFIRE
1999,9/13/1999,KIRK COMPLEX (HARE),43054,36.054,-121.464,,,,Monterey,MTBS,WILDFIRE
1999,9/9/1999,KIRK COMPLEX (FIVE),36162,36.279,-121.625,,,,Monterey,MTBS,WILDFIRE
1999,12/21/1999,RANCH,4011,34.457,-119.153,,,,Ventura,MTBS,WILDFIRE
1999,8/23/1999,YELLOW PINE COMPLEX (YELLOW),3829,41.778,-121.622,,,,Siskiyou,MTBS,WILDFIRE
1999,8/23/1999,MHRD COMPLEX (BUCKS),34459,39.885,-121.313,,,,Plumas,MTBS,WILDFIRE
1999,8/23/1999,MHRD COMPLEX (PIGEON),4810,39.834,-121.021,,,,Plumas,MTBS,WILDFIRE
1999,8/23/1999,MHRD COMPLEX (LOOKOUT),2635,39.849,-121.094,,,,Plumas,MTBS,WILDFIRE
1999,8/23/1999,FRRD COMPLEX (DEVILS GAP),1553,39.707,-121.037,,,,Plumas,MTBS,WILDFIRE
1999,8/23/1999,FRRD COMPLEX (BEAN),1914,39.628,-121.299,,,,Butte,MTBS,WILDFIRE
1999,8/24/1999,MHRD COMPLEX (HORTON 2),4053,39.891,-120.338,,,,Plumas,MTBS,WILDFIRE
1999,7/25/1999,TURTLE,3787,34.375,-117.53,,,,San Bernardino,MTBS,WILDFIRE
1999,8/28/1999,WILLOW,63525,34.345,-117.106,,,,San Bernardino,MTBS,WILDFIRE
1999,8/28/1999,MIXING,3570,33.68,-116.721,,,,Riverside,MTBS,WILDFIRE
1999,8/28/1999,PINE,1901,33.859,-116.809,,,,Riverside,MTBS,WILDFIRE
1999,8/23/1999,SUGAR,5084,40.878,-122.431,,,,Shasta,MTBS,WILDFIRE
1999,8/23/1999,HIGH COMPLEX,3292,40.967,-122.324,,,,Shasta,MTBS,WILDFIRE
1999,8/23/1999,JACKASS,5477,40.841,-122.455,,,,Shasta,MTBS,WILDFIRE
1999,8/23/1999,BIG BAR COMPLEX (ONION),16742,40.883,-123.388,,,,Trinity,MTBS,WILDFIRE
1999,8/23/1999,SHEEP 1,2617,40.88,-122.478,,,,Shasta,MTBS,WILDFIRE
1999,8/23/1999,REPTILE,1817,40.973,-122.508,,,,Shasta,MTBS,WILDFIRE
1999,8/23/1999,LUNCH,2039,40.912,-122.48,,,,Shasta,MTBS,WILDFIRE
1999,8/23/1999,BOHEMOTASH,5683,40.78,-122.447,,,,Shasta,MTBS,WILDFIRE
1999,10/16/1999,JONES,26818,40.652,-122.228,,,,Shasta,MTBS,WILDFIRE
1999,8/10/1999,HIRAM,2823,38.442,-119.912,,,,Alpine,MTBS,WILDFIRE
1999,8/23/1999,PILOT,3831,37.845,-119.984,,,,Tuolumne,MTBS,WILDFIRE
1999,10/16/1999,PENDOLA,4041,39.461,-121.114,,,,Yuba,MTBS,WILDFIRE
1999,9/8/1999,UNNAMED,12403,40.838,-122.508,,,,Shasta,MTBS,WILDFIRE
1999,6/17/1999,JUNIPER COMPLEX (JUNIPER),1828,34.035,-116.329,,,,San Bernardino,MTBS,WILDFIRE
1999,9/26/1999,CANYON,2587,40.461,-122.408,,,,Shasta,MTBS,WILDFIRE
1999,5/27/1999,JUNIPER COMPLEX (FIRE #3),13805,34.011,-116.228,,,,Riverside,MTBS,WILDFIRE
1999,8/22/1999,PINE,24124,41.766,-121.016,,,,Modoc,MTBS,WILDFIRE
1999,8/10/1999,NORTH PARK COMPLEX (LECONTE),8813,37.941,-119.653,,,,Tuolumne,MTBS,WILDLAND FIRE USE
1999,8/16/1999,UNNAMED,1075,40.23,-122.02,,,,Tehama,MTBS,UNKNOWN
1999,10/16/1999,PENDOLA,7727,39.419,-121.197,,,,Yuba,MTBS,WILDFIRE
1999,7/11/1999,LOST BEAR,2441,37.625,-119.575,,,,Mariposa,MTBS,WILDFIRE
1999,8/23/1999,MEGRAM- ORLEANS,125337,41.029,-123.432,,,,Humboldt,MTBS,WILDFIRE
1999,8/23/1999,INKS,6200,40.299,-122.139,,,,Tehama,MTBS,WILDFIRE
1999,11/6/1999,LOST VALLEY,1017,37.755,-119.47,,,,Mariposa,MTBS,WILDFIRE
2000,7/22/2000,MANTER,76158,35.93,-118.182,,,,Tulare,MTBS,WILDFIRE
2000,8/1/2000,GOLDEN,1732,38.536,-119.529,,,,Mono,MTBS,WILDFIRE
2000,6/29/2000,BARRETT,1534,32.633,-116.668,,,,San Diego,MTBS,WILDFIRE
2000,7/26/2000,MORGAN,3325,38.911,-122.539,,,,Lake,MTBS,WILDFIRE
2000,9/19/2000,CONCOW,1761,39.725,-121.531,,,,Butte,MTBS,WILDFIRE
2000,9/29/2000,WEINSTEIN,7980,39.908,-122.627,,,,Tehama,MTBS,WILDFIRE
2000,6/29/2000,TURTLE,1245,40.103,-120.068,,,,Lassen,MTBS,WILDFIRE
2000,6/24/2000,UNNAMED,1820,35.83,-120.796,,,,Monterey,MTBS,WILDFIRE
2000,9/13/2000,HARRIS,9102,34.784,-120.486,,,,Santa Barbara,MTBS,WILDFIRE
2000,6/16/2000,UNNAMED,1601,35.807,-120.817,,,,Monterey,MTBS,WILDFIRE
2000,8/2/2000,PEAK,1316,35.259,-118.549,,,,Kern,MTBS,WILDFIRE
2000,6/12/2000,CALABASAS,1068,34.19,-118.686,,,,Ventura,MTBS,WILDFIRE
2000,7/22/2000,GOAT,1221,40.437,-120.782,,,,Lassen,MTBS,WILDFIRE
2000,6/13/2000,BERRYESSA,4826,38.529,-122.244,,,,Napa,MTBS,WILDFIRE
2000,11/2/2000,HIDDEN,3017,38.753,-122.571,,,,Lake,MTBS,WILDFIRE
2000,7/2/2000,GRANITE,1922,37.716,-120.248,,,,Mariposa,MTBS,WILDFIRE
2000,8/9/2000,ROMERO,1583,37.085,-121.077,,,,Merced,MTBS,WILDFIRE
2000,8/11/2000,UNNAMED,4615,35.909,-121.202,,,,Monterey,MTBS,WILDFIRE
2000,7/29/2000,PECHANGA,11879,33.419,-117.017,,,,San Diego,MTBS,WILDFIRE
2000,7/21/2000,BARK,1897,41.866,-122.883,,,,Siskiyou,MTBS,WILDFIRE
2000,7/22/2000,PLASKETT 2,5825,35.924,-121.414,,,,Monterey,MTBS,WILDFIRE
2000,3/31/2000,TOWN,2483,39.607,-122.652,,,,Glenn,MTBS,WILDFIRE
2000,4/1/2000,CABBAGE,1505,39.455,-122.851,,,,Lake,MTBS,WILDFIRE
2000,10/7/2000,JOURNEY,1032,40.333,-123.366,,,,Trinity,MTBS,WILDFIRE
2000,8/17/2000,STORRIE,49588,40.027,-121.287,,,,Plumas,MTBS,WILDFIRE
2000,8/1/2000,KINGS,3131,35.491,-118.463,,,,Kern,MTBS,WILDFIRE
2000,7/22/2000,HAPPY,5987,36.067,-117.059,,,,Inyo,MTBS,WILDFIRE
2000,6/16/2000,UNNAMED,1825,35.836,-120.773,,,,Monterey,MTBS,UNKNOWN
2000,5/5/2000,UNNAMED,1112,39.599,-122.317,,,,Glenn,MTBS,UNKNOWN
2000,8/3/2000,NORTH FORK,1896,36.258,-120.732,,,,San Benito,MTBS,WILDFIRE
2000,10/2/2000,12 B,1934,41.919,-121.702,,,,Siskiyou,MTBS,UNKNOWN
2000,12/8/2000,UNIT 2,2119,41.986,-121.797,,,,Siskiyou,MTBS,UNKNOWN
2000,12/8/2000,UNIT 13,1028,41.9,-121.709,,,,Siskiyou,MTBS,UNKNOWN
2000,8/30/2000,HUNTER,7734,37.613,-120.173,,,,Mariposa,MTBS,WILDFIRE
2000,7/22/2000,SHELL,5726,35.15,-119.617,,,,San Luis Obispo,MTBS,WILDFIRE
2001,8/27/2001,PONDEROSA,3064,39.058,-120.92,,,,Placer,MTBS,WILDFIRE
2001,8/18/2001,LEONARD,5266,38.218,-120.623,,,,Calaveras,MTBS,WILDFIRE
2001,8/12/2001,CRATER,5558,37.917,-118.95,,,,Mono,MTBS,WILDFIRE
2001,7/26/2001,GRASSHOPPER,1101,40.81,-120.727,,,,Lassen,MTBS,WILDFIRE
2001,5/27/2001,DEVIL,4620,40.395,-120.725,,,,Lassen,MTBS,WILDFIRE
2001,8/8/2001,SHAFFER,1216,40.42,-120.314,,,,Lassen,MTBS,WILDFIRE
2001,8/9/2001,OBSERVATION,67432,40.734,-120.178,,,,Lassen,MTBS,WILDFIRE
2001,7/13/2001,UNNAMED,1636,37.095,-121.171,,,,Merced,MTBS,WILDFIRE
2001,7/13/2001,UNNAMED,1075,38.187,-120.773,,,,Calaveras,MTBS,WILDFIRE
2001,6/13/2001,JACKSON,2293,38.261,-120.94,,,,Amador,MTBS,WILDFIRE
2001,9/6/2001,POE,8447,39.701,-121.48,,,,Butte,MTBS,WILDFIRE
2001,10/24/2001,HIGHWAY 70,1654,39.751,-121.481,,,,Butte,MTBS,WILDFIRE
2001,8/27/2001,SLOAN,1788,34.502,-118.65,,,,Los Angeles,MTBS,WILDFIRE
2001,6/23/2001,WATKINS,1506,33.961,-117.279,,,,Riverside,MTBS,WILDFIRE
2001,7/22/2001,RECHE,1859,34.019,-117.235,,,,San Bernardino,MTBS,WILDFIRE
2001,10/12/2001,STABLES,6726,34.493,-118.495,,,,Los Angeles,MTBS,WILDFIRE
2001,8/25/2001,STAR,16846,39.099,-120.49,,,,Placer,MTBS,WILDFIRE
2001,7/2/2001,MCLAUGHLIN,2586,37.772,-118.86,,,,Mono,MTBS,WILDFIRE
2001,5/9/2001,JONES,1257,41.868,-122.761,,,,Siskiyou,MTBS,WILDFIRE
2001,9/15/2001,HAPPY CAMP COMPLEX (SWILLUP),8723,41.625,-123.539,,,,Siskiyou,MTBS,WILDFIRE
2001,8/8/2001,TROUGH,25270,39.399,-122.705,,,,Glenn,MTBS,WILDFIRE
2001,7/3/2001,CLEAR,4866,41.849,-121.112,,,,Modoc,MTBS,WILDFIRE
2001,8/9/2001,MODOC COMPLEX (ROCK),1735,41.903,-120.848,,,,Modoc,MTBS,WILDFIRE
2001,8/9/2001,BLUE COMPLEX (BLUE),30803,41.182,-120.246,,,,Lassen,MTBS,WILDFIRE
2001,8/10/2001,MODOC COMPLEX (BELL),3156,41.723,-120.963,,,,Modoc,MTBS,WILDFIRE
2001,7/26/2001,STREAM,3667,40.183,-120.606,,,,Plumas,MTBS,WILDFIRE
2001,6/14/2001,HEMLOCK,1113,34.17,-117.065,,,,San Bernardino,MTBS,WILDFIRE
2001,7/3/2001,HIGHWAY,4153,36.781,-119.089,,,,Fresno,MTBS,WILDFIRE
2001,8/28/2001,OREGON,1760,40.743,-122.968,,,,Trinity,MTBS,WILDFIRE
2001,8/31/2001,HYAMPOM,1188,40.578,-123.222,,,,Trinity,MTBS,WILDFIRE
2001,8/20/2001,NORTH FORK,4154,37.264,-119.481,,,,Madera,MTBS,WILDFIRE
2001,8/18/2001,CREEK,9793,37.774,-120.236,,,,Tuolumne,MTBS,WILDFIRE
2001,9/5/2001,DARBY,14734,38.195,-120.307,,,,Tuolumne,MTBS,WILDFIRE
2001,8/12/2001,GAP,2385,39.301,-120.626,,,,Placer,MTBS,WILDFIRE
2001,6/13/2001,165,1797,37.225,-120.834,,,,Merced,MTBS,WILDFIRE
2001,12/8/2001,BELL,3700,32.608,-116.601,,,,San Diego,MTBS,WILDFIRE
2001,1/3/2001,VIEJAS,10942,32.797,-116.735,,,,San Diego,MTBS,WILDFIRE
2001,7/30/2001,BURNT,1913,36.959,-118.7,,,,Fresno,MTBS,WILDLAND FIRE USE
2001,7/10/2001,HOOVER COMPLEX (HOOVER),9163,37.663,-119.482,,,,Mariposa,MTBS,WILDLAND FIRE USE
2002,7/25/2002,UNNAMED,1752,36.02,-120.031,,,,Kings,MTBS,WILDFIRE
2002,6/15/2002,BOREL,3490,35.607,-118.5,,,,Kern,MTBS,WILDFIRE
2002,7/19/2002,HIGHWAY 58,1393,35.433,-120.527,,,,San Luis Obispo,MTBS,WILDFIRE
2002,7/13/2002,SLINKARD,8906,38.65,-119.567,,,,Mono,MTBS,WILDFIRE
2002,7/12/2002,BLACK,1696,40.611,-120.52,,,,Lassen,MTBS,WILDFIRE
2002,7/13/2002,RUSH,5191,40.632,-120.102,,,,Lassen,MTBS,WILDFIRE
2002,7/27/2002,UNNAMED,1007,33.885,-117.681,,,,San Bernardino,MTBS,WILDFIRE
2002,7/16/2002,UNNAMED,1232,36.369,-121.487,,,,Monterey,MTBS,WILDFIRE
2002,9/3/2002,LEONA,5089,34.585,-118.275,,,,Los Angeles,MTBS,WILDFIRE
2002,5/31/2002,ARROWHEAD,2621,34.196,-117.241,,,,San Bernardino,MTBS,WILDFIRE
2002,6/8/2002,SKYWAY,2179,39.686,-121.716,,,,Butte,MTBS,WILDFIRE
2002,6/19/2002,TROY,1279,32.826,-116.392,,,,San Diego,MTBS,WILDFIRE
2002,9/14/2002,OASIS,1199,34.459,-118.277,,,,Los Angeles,MTBS,WILDFIRE
2002,10/1/2002,16,1522,38.893,-122.265,,,,Yolo,MTBS,WILDFIRE
2002,7/10/2002,SULPHUR SPRINGS,1875,36.042,-121.239,,,,Monterey,MTBS,WILDFIRE
2002,11/25/2002,PINE,1066,38.862,-122.924,,,,Mendocino,MTBS,WILDFIRE
2002,7/29/2002,PINES,65407,33.146,-116.574,,,,San Diego,MTBS,WILDFIRE
2002,5/13/2002,ANTONIO,1282,33.6,-117.606,,,,Orange,MTBS,WILDFIRE
2002,2/9/2002,GREEN,2028,33.852,-117.685,,,,Orange,MTBS,WILDFIRE
2002,9/23/2002,CROY,3109,37.078,-121.763,,,,Santa Clara,MTBS,WILDFIRE
2002,6/9/2002,DAVIS,2182,35.689,-120.212,,,,San Luis Obispo,MTBS,WILDFIRE
2002,6/22/2002,STAGE,1179,35.931,-118.925,,,,Tulare,MTBS,WILDFIRE
2002,6/14/2002,UNNAMED,3427,35.915,-121.209,,,,Monterey,MTBS,WILDFIRE
2002,5/11/2002,BOUQUET,4644,34.539,-118.436,,,,Los Angeles,MTBS,WILDFIRE
2002,6/5/2002,COPPER,19048,34.558,-118.482,,,,Los Angeles,MTBS,WILDFIRE
2002,6/18/2002,COPCO,1512,34.74,-118.781,,,,Los Angeles,MTBS,WILDFIRE
2002,9/1/2002,CURVE,20565,34.306,-117.815,,,,Los Angeles,MTBS,WILDFIRE
2002,9/22/2002,WILLIAMS,37505,34.195,-117.777,,,,Los Angeles,MTBS,WILDFIRE
2002,5/13/2002,MATEO,3085,33.442,-117.481,,,,San Diego,MTBS,WILDFIRE
2002,11/25/2002,PLUM,1847,38.746,-120.398,,,,El Dorado,MTBS,WILDFIRE
2002,7/1/2002,BIRCH,2601,37.539,-118.663,,,,Mono,MTBS,WILDFIRE
2002,7/11/2002,INYO COMPLEX (FULLER),6696,37.104,-118.374,,,,Inyo,MTBS,WILDFIRE
2002,6/9/2002,FORKS,1488,41.273,-123.321,,,,Siskiyou,MTBS,WILDFIRE
2002,7/22/2002,STANZA,3091,41.669,-123.314,,,,Siskiyou,MTBS,WILDFIRE
2002,9/26/2002,CONE,1788,40.752,-121.158,,,,Lassen,MTBS,WILDFIRE
2002,6/1/2002,WOLF,21097,34.593,-119.211,,,,Ventura,MTBS,WILDFIRE
2002,6/16/2002,BLUECUT,7199,34.312,-117.444,,,,San Bernardino,MTBS,WILDFIRE
2002,6/26/2002,LOUISIANA,6651,34.288,-117.476,,,,San Bernardino,MTBS,WILDFIRE
2002,7/21/2002,MCNALLY,146540,36.067,-118.4,,,,Tulare,MTBS,WILDFIRE
2002,7/13/2002,MUSSOLINI,3109,41.461,-122.516,,,,Siskiyou,MTBS,WILDFIRE
2002,6/23/2002,UNNAMED,2447,34.594,-119.488,,,,Santa Barbara,MTBS,WILDFIRE
2002,11/20/2002,PANTHER,1372,40.587,-122.548,,,,Shasta,MTBS,WILDFIRE
2002,8/26/2002,PALISADE,1048,37.055,-118.536,,,,Fresno,MTBS,WILDLAND FIRE USE
2002,7/11/2002,WOLF,1866,37.874,-119.653,,,,Tuolumne,MTBS,WILDLAND FIRE USE
2002,10/3/2002,PW-03 GIN FLAT,3424,37.789,-119.76,,,,Tuolumne,MTBS,WILDFIRE
2002,9/24/2002,6:00 AM,1219,41.962,-121.724,,,,Siskiyou,MTBS,UNKNOWN
2002,11/21/2002,UNIT 13 A,1448,41.901,-121.707,,,,Siskiyou,MTBS,UNKNOWN
2002,6/15/2002,SUDDEN RANCH,7840,34.547,-120.532,,,,Santa Barbara,MTBS,WILDFIRE
2002,2/10/2002,GAVILAN,5603,33.389,-117.264,,,,San Diego,MTBS,WILDFIRE
2002,6/15/2002,CANNON,23605,38.473,-119.45,,,,Mono,MTBS,WILDFIRE
2003,7/16/2003,LIGHTNING,1141,35.005,-114.652,,,,San Bernardino,MTBS,WILDFIRE
2003,10/26/2003,MINE/OTAY,37232,32.621,-116.849,,,,San Diego,MTBS,WILDFIRE
2003,7/25/2003,CANYON,4427,33.802,-116.88,,,,Riverside,MTBS,WILDFIRE
2003,9/4/2003,HONEYDEW,13555,40.161,-124.134,,,,Humboldt,MTBS,WILDFIRE
2003,7/2/2003,A-3,1153,40.337,-120.443,,,,Lassen,MTBS,WILDFIRE
2003,7/20/2003,CHILCOOT COMPLEX,5763,39.761,-120.133,,,,Plumas,MTBS,WILDFIRE
2003,7/31/2003,BARBER,1420,41.253,-120.088,,,,Modoc,MTBS,WILDFIRE
2003,9/3/2003,MORGAN,2464,38.831,-122.453,,,,Lake,MTBS,WILDFIRE
2003,7/21/2003,UNNAMED,1320,35.18,-118.478,,,,Kern,MTBS,WILDFIRE
2003,10/21/2003,ROBLAR 2,8775,33.412,-117.391,,,,San Diego,MTBS,WILDFIRE
2003,7/16/2003,COYOTE,19215,33.388,-116.582,,,,San Diego,MTBS,WILDFIRE
2003,10/25/2003,CEDAR,268362,32.939,-116.766,,,,San Diego,MTBS,WILDFIRE
2003,10/26/2003,PARADISE,55995,33.204,-116.916,,,,San Diego,MTBS,WILDFIRE
2003,6/17/2003,CALIENTE,1246,35.311,-118.665,,,,Kern,MTBS,WILDFIRE
2003,6/30/2003,TEJON,1195,34.852,-118.886,,,,Kern,MTBS,WILDFIRE
2003,7/20/2003,GRAPEVINE,1955,34.902,-118.91,,,,Kern,MTBS,WILDFIRE
2003,10/24/2003,VERDALE,8483,34.426,-118.716,,,,Ventura,MTBS,WILDFIRE
2003,9/3/2003,FORTY,1311,38.916,-122.282,,,,Yolo,MTBS,WILDFIRE
2003,10/23/2003,PIRU,63920,34.48,-118.861,,,,Ventura,MTBS,WILDFIRE
2003,7/26/2003,ACKLEY,10231,41.743,-121.328,,,,Modoc,MTBS,WILDFIRE
2003,6/16/2003,152,1703,37.096,-121.167,,,,Merced,MTBS,WILDFIRE
2003,6/30/2003,I-5,1101,36.877,-120.963,,,,Merced,MTBS,WILDFIRE
2003,7/4/2003,STAGE,2005,33.638,-116.967,,,,Riverside,MTBS,WILDFIRE
2003,8/18/2003,LOCUST,1915,33.982,-117.164,,,,Riverside,MTBS,WILDFIRE
2003,10/21/2003,PASS,2456,33.996,-117.257,,,,Riverside,MTBS,WILDFIRE
2003,10/26/2003,MOUNTAIN,10630,33.601,-116.982,,,,Riverside,MTBS,WILDFIRE
2003,7/20/2003,DEL PUERTO,6441,37.432,-121.402,,,,Stanislaus,MTBS,WILDFIRE
2003,8/27/2003,DEVIL,4975,37.492,-121.572,,,,Alameda,MTBS,WILDFIRE
2003,8/27/2003,JUMP,4817,37.387,-121.522,,,,Santa Clara,MTBS,WILDFIRE
2003,8/27/2003,ANNIE,17383,37.23,-121.245,,,,Stanislaus,MTBS,WILDFIRE
2003,10/27/2003,WHITMORE,1238,40.631,-121.848,,,,Shasta,MTBS,WILDFIRE
2003,7/20/2003,PARKHILL,1258,35.416,-120.468,,,,San Luis Obispo,MTBS,WILDFIRE
2003,8/10/2003,CHIMNEY,1275,35.041,-120.209,,,,San Luis Obispo,MTBS,WILDFIRE
2003,10/25/2003,SIMI,107756,34.335,-118.792,,,,Ventura,MTBS,WILDFIRE
2003,7/29/2003,KIBBIE COMPLEX,6657,38.048,-119.86,,,,Tuolumne,MTBS,WILDLAND FIRE USE
2003,8/4/2003,UNNAMED,2711,35.988,-121.3,,,,Monterey,MTBS,WILDFIRE
2003,7/24/2003,HAUSER,2139,34.564,-118.294,,,,Los Angeles,MTBS,WILDFIRE
2003,10/25/2003,PADUA,10577,34.173,-117.689,,,,Los Angeles,MTBS,WILDFIRE
2003,9/2/2003,DEXTER WFU,2414,37.82,-118.794,,,,Mono,MTBS,WILDLAND FIRE USE
2003,9/3/2003,GRINDSTONE COMPLEX (HAPPY CAMP),2122,39.531,-122.727,,,,Glenn,MTBS,WILDFIRE
2003,9/3/2003,GRINDSTONE COMPLEX (DEAFY),4903,39.504,-122.821,,,,Lake,MTBS,WILDFIRE
2003,9/28/2003,SPANISH,6384,39.634,-122.828,,,,Glenn,MTBS,WILDFIRE
2003,9/5/2003,BRIDGE,1181,34.176,-117.173,,,,San Bernardino,MTBS,WILDFIRE
2003,10/21/2003,GRAND PRIX,50799,34.186,-117.473,,,,San Bernardino,MTBS,WILDFIRE
2003,10/25/2003,OLD,90180,34.247,-117.284,,,,San Bernardino,MTBS,WILDFIRE
2003,7/23/2003,BASIN,1051,35.43,-118.439,,,,Kern,MTBS,WILDFIRE
2003,8/1/2003,COONEY WFU,1793,36.347,-118.531,,,,Tulare,MTBS,WILDLAND FIRE USE
2003,9/3/2003,ALBANITA AND HOOKER,4946,36.118,-118.21,,,,Tulare,MTBS,WILDFIRE
2003,8/24/2003,KAWEAH-KERN COMPLEX (WEST KERN),7366,36.34,-118.41,,,,Tulare,MTBS,WILDLAND FIRE USE
2003,9/14/2003,LOMA,3728,40.789,-123.301,,,,Trinity,MTBS,WILDFIRE
2003,7/20/2003,MOUNTAIN COMPLEX,4033,38.146,-119.9,,,,Tuolumne,MTBS,WILDFIRE
2003,8/31/2003,WHITT,1140,38.382,-119.988,,,,Tuolumne,MTBS,WILDFIRE
2003,8/31/2003,MUD WFU,4457,38.443,-119.944,,,,Alpine,MTBS,WILDLAND FIRE USE
2003,6/12/2003,UNNAMED,2714,33.324,-116.656,,,,San Diego,MTBS,WILDFIRE
2003,1/6/2003,PACIFIC,1073,34.044,-118.873,,,,Los Angeles,MTBS,WILDFIRE
2003,7/28/2003,KAWEAH-KERN COMPLEX (WILLIAMS),3530,36.709,-118.695,,,,Tulare,MTBS,WILDLAND FIRE USE
2003,9/27/2003,KAWEAH-KERN COMPLEX (PARADISE 2),1308,36.487,-118.746,,,,Tulare,MTBS,WILDFIRE
2003,7/31/2003,DUNCAN COMPLEX (WHISKEY),1107,37.855,-119.588,,,,Mariposa,MTBS,WILDLAND FIRE USE
2003,8/31/2003,KIBBIE COMPLEX (TUOLUMNE),3361,37.846,-119.728,,,,Tuolumne,MTBS,WILDLAND FIRE USE
2003,7/3/2003,UNNAMED,1586,35.895,-121.217,,,,Monterey,MTBS,UNKNOWN
2003,8/20/2003,UNNAMED,1205,35.919,-121.227,,,,Monterey,MTBS,UNKNOWN
2003,7/3/2003,UNNAMED,2252,35.926,-121.176,,,,Monterey,MTBS,UNKNOWN
2003,5/24/2003,UNNAMED,1595,35.936,-121.151,,,,Monterey,MTBS,UNKNOWN
2003,10/15/2003,SECRET,1126,40.628,-120.24,,,,Lassen,MTBS,WILDFIRE
2003,7/21/2003,SMOKE,7807,40.699,-119.999,,,,Lassen,MTBS,WILDFIRE
2003,8/27/2003,SUMMIT COMPLEX,6370,36.229,-118.141,,,,Tulare,MTBS,WILDFIRE
2003,6/1/2003,BIRD,7727,37.551,-121.335,,,,Stanislaus,MTBS,WILDFIRE
2003,9/3/2003,CANOE,10881,40.276,-123.934,,,,Humboldt,MTBS,WILDFIRE
2004,6/25/2004,DANA,3056,38.598,-119.548,,,,Mono,MTBS,WILDFIRE
2004,5/12/2004,COTTONWOOD,1874,33.99,-116.681,,,,Riverside,MTBS,WILDFIRE
2004,7/17/2004,MELTON,3958,33.608,-116.882,,,,Riverside,MTBS,WILDFIRE
2004,9/13/2004,BORDER,1680,32.585,-116.514,,,,,MTBS,WILDFIRE
2004,8/14/2004,FRENCH,13683,40.74,-122.703,,,,Shasta,MTBS,WILDFIRE
2004,9/3/2004,GEYSERS,12075,38.729,-122.746,,,,Sonoma,MTBS,WILDFIRE
2004,10/10/2004,RUMSEY,39335,38.757,-122.274,,,,Napa,MTBS,WILDFIRE
2004,7/24/2004,IRONGATE,2340,41.951,-122.455,,,,Siskiyou,MTBS,WILDFIRE
2004,9/7/2004,RUNWAY,1415,34.355,-117.497,,,,San Bernardino,MTBS,WILDFIRE
2004,8/11/2004,OREGON,1983,39.597,-121.499,,,,Butte,MTBS,WILDFIRE
2004,7/11/2004,GATOS,1007,36.237,-120.573,,,,Fresno,MTBS,WILDFIRE
2004,5/2/2004,INDIA,2135,33.381,-117.318,,,,San Diego,MTBS,WILDFIRE
2004,9/12/2004,OLD HWY,1395,37.487,-119.948,,,,Mariposa,MTBS,WILDFIRE
2004,8/8/2004,KINCAID,1219,37.419,-121.666,,,,Santa Clara,MTBS,WILDFIRE
2004,8/6/2004,CALAVERAS COMPLEX,3682,37.917,-120.674,,,,Calaveras,MTBS,WILDFIRE
2004,9/3/2004,PATTISON,2863,38.173,-120.871,,,,Calaveras,MTBS,WILDFIRE
2004,8/6/2004,ARMSTRONG,1079,38.187,-120.425,,,,Calaveras,MTBS,WILDFIRE
2004,7/12/2004,PINE,18309,34.741,-118.608,,,,Los Angeles,MTBS,WILDFIRE
2004,7/17/2004,CROWN COMPLEX (FOOTHILL),6464,34.37,-118.47,,,,Los Angeles,MTBS,WILDFIRE
2004,7/20/2004,CROWN COMPLEX (CROWN),12474,34.457,-118.113,,,,Los Angeles,MTBS,WILDFIRE
2004,8/7/2004,EAST,1403,34.597,-118.691,,,,Los Angeles,MTBS,WILDFIRE
2004,10/6/2004,POWER,17266,38.502,-120.28,,,,Amador,MTBS,WILDFIRE
2004,10/13/2004,FREDS,8147,38.786,-120.313,,,,El Dorado,MTBS,WILDFIRE
2004,7/22/2004,STRAYLOR,3492,40.826,-121.078,,,,Lassen,MTBS,WILDFIRE
2004,5/3/2004,CACHUMA,1067,34.724,-119.901,,,,Santa Barbara,MTBS,WILDFIRE
2004,6/5/2004,GAVIOTA,7624,34.487,-120.196,,,,Santa Barbara,MTBS,WILDFIRE
2004,7/28/2004,SIMS,3807,40.702,-123.544,,,,Trinity,MTBS,WILDFIRE
2004,4/25/2004,PLEASURE,2609,33.5,-116.843,,,,Riverside,MTBS,WILDFIRE
2004,7/11/2004,VERBENIA,3999,33.878,-116.704,,,,Riverside,MTBS,WILDFIRE
2004,8/12/2004,DEEP,3371,36.174,-118.722,,,,Tulare,MTBS,WILDFIRE
2004,8/11/2004,BEAR,10972,40.709,-122.183,,,,Shasta,MTBS,WILDFIRE
2004,8/9/2004,EARLY,1720,37.886,-119.946,,,,Tuolumne,MTBS,WILDFIRE
2004,7/19/2004,PELICAN,1459,37.625,-121.196,,,,Stanislaus,MTBS,WILDFIRE
2004,7/4/2004,BLUFF WFU,3415,40.507,-121.339,,,,Shasta,MTBS,WILDLAND FIRE USE
2004,3/21/2004,POWER TOWER,1564,40.59,-122.525,,,,Shasta,MTBS,WILDFIRE
2004,7/1/2004,MEADOW COMPLEX (MEADOW),4921,37.674,-119.547,,,,Mariposa,MTBS,WILDLAND FIRE USE
2004,10/15/2004,HETCHY,2057,37.964,-119.727,,,,Tuolumne,MTBS,WILDFIRE
2004,3/22/2004,OREMS III,1077,41.978,-121.624,,,,Siskiyou,MTBS,UNKNOWN
2004,7/13/2004,MATAGUAY,9087,33.216,-116.651,,,,San Diego,MTBS,WILDFIRE
2004,5/2/2004,EAGLE,9132,33.479,-117.001,,,,Riverside,MTBS,WILDFIRE
2004,5/3/2004,CERRITO,18605,33.751,-117.379,,,,Riverside,MTBS,WILDFIRE
2005,7/22/2005,KINGSTON,3739,35.81,-115.916,,,,Inyo,MTBS,WILDFIRE
2005,5/25/2005,RANGE,2473,35.307,-116.757,,,,San Bernardino,MTBS,WILDFIRE
2005,6/22/2005,PARADISE,3461,34.049,-116.559,,,,San Bernardino,MTBS,WILDFIRE
2005,10/5/2005,THURMAN,1076,34.116,-117.008,,,,San Bernardino,MTBS,WILDFIRE
2005,6/19/2005,PIONEER,2004,34.177,-116.502,,,,San Bernardino,MTBS,WILDFIRE
2005,6/13/2005,JOHNSON,1400,36.54,-121.361,,,,Monterey,MTBS,WILDFIRE
2005,9/29/2005,HARVARD,1027,34.215,-118.295,,,,Los Angeles,MTBS,WILDFIRE
2005,7/18/2005,CHINA LAKE,10165,35.925,-117.486,,,,Inyo,MTBS,WILDFIRE
2005,6/4/2005,FIVE,2620,36.489,-120.458,,,,Fresno,MTBS,WILDFIRE
2005,7/9/2005,HIGH,1031,35.093,-118.384,,,,Kern,MTBS,WILDFIRE
2005,9/21/2005,PINE,1898,35.539,-118.834,,,,Kern,MTBS,WILDFIRE
2005,6/27/2005,MUNZ,1393,34.693,-118.37,,,,Los Angeles,MTBS,WILDFIRE
2005,9/28/2005,TOPANGA,24133,34.218,-118.696,,,,Ventura,MTBS,WILDFIRE
2005,7/5/2005,TOVEY,1184,34.541,-118.161,,,,Los Angeles,MTBS,WILDFIRE
2005,9/3/2005,GORMAN,2439,34.811,-118.877,,,,Kern,MTBS,WILDFIRE
2005,9/9/2005,HORSESHOE WFU,1535,40.485,-121.338,,,,Shasta,MTBS,WILDLAND FIRE USE
2005,7/2/2005,BAILEY,1162,37.282,-119.853,,,,Madera,MTBS,WILDFIRE
2005,8/1/2005,I-5,3825,36.818,-120.804,,,,Fresno,MTBS,WILDFIRE
2005,6/3/2005,DOS AMIGOS,1408,36.903,-120.823,,,,Merced,MTBS,WILDFIRE
2005,10/5/2005,BORDER 50,3552,32.577,-116.722,,,,San Diego,MTBS,WILDFIRE
2005,7/5/2005,YORBA LINDA,1242,33.921,-117.764,,,,Orange,MTBS,WILDFIRE
2005,6/22/2005,SOBOBA,2031,33.817,-116.918,,,,Riverside,MTBS,WILDFIRE
2005,9/28/2005,SAN TIMOTEO,1047,33.975,-117.15,,,,Riverside,MTBS,WILDFIRE
2005,10/5/2005,WOODHOUSE,6360,33.958,-117.109,,,,Riverside,MTBS,WILDFIRE
2005,7/19/2005,TESLA,6638,37.661,-121.565,,,,Alameda,MTBS,WILDFIRE
2005,7/9/2005,NINE,1240,35.693,-118.422,,,,Kern,MTBS,WILDFIRE
2005,8/10/2005,36,2265,40.3,-122.734,,,,Tehama,MTBS,WILDFIRE
2005,8/26/2005,MANTON,2296,40.444,-121.855,,,,Shasta,MTBS,WILDFIRE
2005,7/7/2005,MILLWOOD,2997,36.517,-119.108,,,,Tulare,MTBS,WILDFIRE
2005,11/18/2005,SCHOOL,4089,34.307,-119.264,,,,Ventura,MTBS,WILDFIRE
2005,9/29/2005,UNNAMED,1492,33.336,-117.397,,,,San Diego,MTBS,WILDFIRE
2005,6/22/2005,UNNAMED,1279,35.768,-120.831,,,,San Luis Obispo,MTBS,WILDFIRE
2005,8/25/2005,UNNAMED,39070,35.933,-121.219,,,,Monterey,MTBS,WILDFIRE
2005,8/19/2005,UNNAMED,9044,36.009,-117.635,,,,Inyo,MTBS,WILDFIRE
2005,9/20/2005,WOOLEY,3239,41.489,-123.27,,,,Siskiyou,MTBS,WILDFIRE
2005,8/9/2005,DEER,1700,39.374,-122.844,,,,Lake,MTBS,WILDFIRE
2005,8/26/2005,BLAISDELL,5335,33.868,-116.638,,,,Riverside,MTBS,WILDFIRE
2005,7/24/2005,CRAG WFU,1443,36.108,-118.183,,,,Tulare,MTBS,WILDLAND FIRE USE
2005,7/17/2005,COMB COMPLEX,10211,36.828,-118.659,,,,Fresno,MTBS,WILDLAND FIRE USE
2005,8/24/2005,HARDING,2358,39.635,-120.321,,,,Sierra,MTBS,WILDFIRE
2005,6/22/2005,HACKBERRY COMPLEX,69967,35.086,-115.317,,,,San Bernardino,MTBS,WILDFIRE
2005,8/3/2005,HALLORAN,1044,35.392,-115.775,,,,San Bernardino,MTBS,WILDFIRE
2005,9/21/2005,WAPAMA COMPLEX (WAPAMA),1203,37.977,-119.777,,,,Tuolumne,MTBS,WILDLAND FIRE USE
2005,2/24/2005,OREMS 3,1284,41.978,-121.626,,,,Siskiyou,MTBS,UNKNOWN
2005,7/3/2005,CARO,1314,35.608,-119.837,,,,Kern,MTBS,WILDFIRE
2006,7/22/2006,RICO,11807,36.05,-120.693,,,,Monterey,MTBS,WILDFIRE
2006,8/3/2006,NET,1551,35.688,-120.08,,,,Kern,MTBS,WILDFIRE
2006,5/13/2006,ALMAZAN,2134,36.12,-120.402,,,,Fresno,MTBS,WILDFIRE
2006,5/29/2006,MOCAL,1037,35.211,-119.676,,,,San Luis Obispo,MTBS,WILDFIRE
2006,7/3/2006,PEDRO,1884,37.806,-120.376,,,,Tuolumne,MTBS,WILDFIRE
2006,7/11/2006,BECK,1748,35.281,-119.837,,,,San Luis Obispo,MTBS,WILDFIRE
2006,7/9/2006,CANYON,36851,37.36,-121.345,,,,Stanislaus,MTBS,WILDFIRE
2006,5/27/2006,ALPAUGH,1501,35.821,-119.511,,,,Tulare,MTBS,WILDFIRE
2006,8/13/2006,QUAIL,4949,34.805,-118.819,,,,Los Angeles,MTBS,WILDFIRE
2006,7/29/2006,JUNCTION,3332,40.742,-123.004,,,,Trinity,MTBS,WILDFIRE
2006,9/24/2006,NOBLE,1238,39.963,-123.717,,,,Mendocino,MTBS,WILDFIRE
2006,6/25/2006,OBSERVATION,2762,40.76,-120.149,,,,Lassen,MTBS,WILDFIRE
2006,10/11/2006,CUYAMA,1050,35.05,-119.895,,,,San Luis Obispo,MTBS,WILDFIRE
2006,10/25/2006,PHELPS,1661,36.159,-120.251,,,,Fresno,MTBS,WILDFIRE
2006,7/23/2006,UNCLES COMPLEX,3794,41.414,-123.177,,,,Siskiyou,MTBS,WILDFIRE
2006,6/4/2006,DEVIL,1135,35.757,-119.997,,,,Kern,MTBS,WILDFIRE
2006,7/22/2006,EMPIRE,1072,33.41,-118.453,,,,Los Angeles,MTBS,WILDFIRE
2006,7/18/2006,CREEK,1685,40.371,-120.701,,,,Lassen,MTBS,WILDFIRE
2006,9/22/2006,ZAM ASSIST,14404,38.754,-121.905,,,,Yolo,MTBS,WILDFIRE
2006,9/16/2006,ORCHARD,1609,33.981,-117.021,,,,Riverside,MTBS,WILDFIRE
2006,9/17/2006,RANCH,2074,33.952,-116.919,,,,Riverside,MTBS,WILDFIRE
2006,5/26/2006,STUHR,1546,37.331,-121.135,,,,Stanislaus,MTBS,WILDFIRE
2006,7/11/2006,MIDWAY,6243,37.681,-121.531,,,,San Joaquin,MTBS,WILDFIRE
2006,7/26/2006,HOY,1376,41.487,-122.397,,,,Siskiyou,MTBS,WILDFIRE
2006,7/9/2006,MAGGIE,3721,36.323,-118.506,,,,Tulare,MTBS,WILDLAND FIRE USE
2006,7/24/2006,ORLEANS COMPLEX,15965,41.336,-123.465,,,,Siskiyou,MTBS,WILDFIRE
2006,7/20/2006,COYOTE,1386,36.061,-118.894,,,,Tulare,MTBS,WILDFIRE
2006,6/25/2006,BALLS CANYON,1955,39.666,-120.079,,,,Sierra,MTBS,WILDFIRE
2006,7/23/2006,HORSE,16659,32.721,-116.62,,,,San Diego,MTBS,WILDFIRE
2006,6/26/2006,GOODALE,4244,36.96,-118.283,,,,Inyo,MTBS,WILDFIRE
2006,9/14/2006,SAWMILL,7095,37.804,-118.63,,,,Mono,MTBS,WILDFIRE
2006,7/23/2006,TITUS,6121,41.609,-123.355,,,,Siskiyou,MTBS,WILDFIRE
2006,7/24/2006,RUSH,5282,41.091,-123.006,,,,Siskiyou,MTBS,WILDFIRE
2006,6/19/2006,PERKINS,14342,34.851,-119.695,,,,Santa Barbara,MTBS,WILDFIRE
2006,7/22/2006,RIDGE,2487,34.913,-119.297,,,,Kern,MTBS,WILDFIRE
2006,7/22/2006,BALD,2075,34.93,-119.961,,,,Santa Barbara,MTBS,WILDFIRE
2006,9/4/2006,DAY,159713,34.615,-118.971,,,,Ventura,MTBS,WILDFIRE
2006,6/26/2006,HARVEY,1299,40.053,-122.91,,,,Tehama,MTBS,WILDLAND FIRE USE
2006,7/24/2006,HUNTER,16757,39.662,-122.927,,,,Mendocino,MTBS,WILDFIRE
2006,6/26/2006,HIGH,2919,41.446,-121.309,,,,Modoc,MTBS,WILDFIRE
2006,7/24/2006,SAGE,5474,41.708,-120.504,,,,Modoc,MTBS,WILDFIRE
2006,7/24/2006,HANCOCK,23299,41.426,-123.306,,,,Siskiyou,MTBS,WILDFIRE
2006,6/25/2006,BOULDER,2872,40.195,-120.577,,,,Plumas,MTBS,WILDFIRE
2006,7/9/2006,MILLARD,86585,34.114,-116.62,,,,San Bernardino,MTBS,WILDFIRE
2006,8/29/2006,EMERALD,2106,34.092,-117.057,,,,San Bernardino,MTBS,WILDFIRE
2006,9/19/2006,PINNACLES,2651,34.323,-117.2,,,,San Bernardino,MTBS,WILDFIRE
2006,10/26/2006,ESPERANZA,40566,33.861,-116.879,,,,Riverside,MTBS,WILDFIRE
2006,7/26/2006,BRODER WFU,3484,36.145,-118.173,,,,Tulare,MTBS,WILDFIRE
2006,8/5/2006,COTTONWOOD,2386,35.416,-118.267,,,,Kern,MTBS,WILDFIRE
2006,2/24/2006,HOTLUM,3171,41.512,-122.315,,,,Siskiyou,MTBS,WILDFIRE
2006,9/2/2006,PIGEON,100962,40.951,-123.202,,,,Trinity,MTBS,WILDFIRE
2006,9/5/2006,RALSTON,7975,39.024,-120.681,,,,Placer,MTBS,WILDFIRE
2006,9/19/2006,BASSETTS,2320,39.633,-120.589,,,,Sierra,MTBS,WILDFIRE
2006,7/5/2006,BUTTE 2,1766,35.992,-117.025,,,,Inyo,MTBS,WILDFIRE
2006,7/22/2006,WHISPERING PINES,1425,34.071,-116.34,,,,San Bernardino,MTBS,WILDFIRE
2006,7/7/2006,PUSHWALLA,2468,33.879,-116.088,,,,Riverside,MTBS,WILDFIRE
2006,7/20/2006,TOUGH NUT,1139,35.001,-115.524,,,,San Bernardino,MTBS,WILDFIRE
2006,7/3/2006,UNNAMED,1021,40.613,-120.029,,,,Lassen,MTBS,UNKNOWN
2006,7/24/2006,CALICO,9274,36.009,-116.532,,,,Inyo,MTBS,WILDFIRE
2006,12/3/2006,SHEKELL,10295,34.329,-118.894,,,,Ventura,MTBS,WILDFIRE
2006,7/22/2006,THREE ROCKS,9336,36.501,-120.504,,,,Fresno,MTBS,WILDFIRE
2006,2/6/2006,SIERRA,9368,33.824,-117.687,,,,Orange,MTBS,WILDFIRE
2007,7/6/2007,ROCK 2,1082,36.042,-118.781,,,,Tulare,MTBS,WILDFIRE
2007,6/1/2007,LARSON,1212,38.551,-119.513,,,,Mono,MTBS,WILDFIRE
2007,9/3/2007,LICK,47424,37.223,-121.428,,,,Santa Clara,MTBS,WILDFIRE
2007,6/20/2007,BROWN,1350,35.624,-119.768,,,,Kern,MTBS,WILDFIRE
2007,3/31/2007,LOS FLORES,4834,34.361,-117.269,,,,San Bernardino,MTBS,WILDFIRE
2007,8/7/2007,BANGOR,1137,39.351,-121.458,,,,Butte,MTBS,WILDFIRE
2007,7/10/2007,ELK COMPLEX (KING CREEK 2),14201,41.681,-123.414,,,,Siskiyou,MTBS,WILDFIRE
2007,7/10/2007,ELK COMPLEX (ELK),1364,41.617,-123.279,,,,Siskiyou,MTBS,WILDFIRE
2007,6/24/2007,WHITE,11784,34.986,-118.431,,,,Kern,MTBS,WILDFIRE
2007,5/19/2007,GORMAN,2606,34.758,-118.812,,,,Los Angeles,MTBS,WILDFIRE
2007,10/22/2007,MAGIC,2678,34.404,-118.622,,,,Los Angeles,MTBS,WILDFIRE
2007,5/10/2007,ISLAND,4945,33.359,-118.364,,,,Los Angeles,MTBS,WILDFIRE
2007,10/23/2007,AMMO FIRE,19213,33.333,-117.479,,,,San Diego,MTBS,WILDFIRE
2007,10/22/2007,RICE,10013,33.384,-117.18,,,,San Diego,MTBS,WILDFIRE
2007,7/16/2007,PHILLIPS,1053,38.811,-121.383,,,,Placer,MTBS,WILDFIRE
2007,3/11/2007,241 FIRE,1855,33.828,-117.747,,,,Orange,MTBS,WILDFIRE
2007,7/10/2007,POWER,1055,41.012,-121.486,,,,Shasta,MTBS,WILDFIRE
2007,6/3/2007,SHANNON,2346,35.984,-118.853,,,,Tulare,MTBS,WILDFIRE
2007,7/10/2007,BALLS CANYON,4551,39.684,-120.051,,,,Sierra,MTBS,WILDFIRE
2007,9/2/2007,NORTH,2437,34.416,-118.25,,,,Los Angeles,MTBS,WILDFIRE
2007,10/20/2007,RANCH,37009,34.516,-118.727,,,,Los Angeles,MTBS,WILDFIRE
2007,10/21/2007,BUCKWEED,41332,34.515,-118.446,,,,Los Angeles,MTBS,WILDFIRE
2007,9/12/2007,PINE,2302,32.786,-116.534,,,,San Diego,MTBS,WILDFIRE
2007,10/21/2007,WITCH,167551,33.079,-116.766,,,,San Diego,MTBS,WILDFIRE
2007,10/21/2007,SANTIAGO,27605,33.72,-117.66,,,,Orange,MTBS,WILDFIRE
2007,10/23/2007,POOMACHA,47496,33.3,-116.92,,,,San Diego,MTBS,WILDFIRE
2007,10/21/2007,HARRIS,90443,32.646,-116.771,,,,San Diego,MTBS,WILDFIRE
2007,7/6/2007,INYO COMPLEX (SAGE),6531,37.156,-118.354,,,,Inyo,MTBS,WILDFIRE
2007,7/6/2007,INYO COMPLEX (OAK),28447,36.848,-118.279,,,,Inyo,MTBS,WILDFIRE
2007,7/10/2007,ELK COMPLEX (LITTLE GRIDER),2397,41.804,-123.412,,,,Siskiyou,MTBS,WILDFIRE
2007,7/10/2007,CHINA BACK COMPLEX,3162,41.842,-122.703,,,,Siskiyou,MTBS,WILDFIRE
2007,7/4/2007,ZACA,241846,34.695,-119.659,,,,Santa Barbara,MTBS,WILDFIRE
2007,7/10/2007,FLETCHER,8168,41.971,-120.545,,,,Modoc,MTBS,WILDFIRE
2007,7/5/2007,ANTELOPE COMPLEX (WHEELER),23108,40.139,-120.582,,,,Plumas,MTBS,WILDFIRE
2007,9/3/2007,MOONLIGHT,65718,40.22,-120.736,,,,Plumas,MTBS,WILDFIRE
2007,9/14/2007,BUTLER 2,14661,34.292,-116.991,,,,San Bernardino,MTBS,WILDFIRE
2007,10/22/2007,GRASS VALLEY,1463,34.267,-117.228,,,,San Bernardino,MTBS,WILDFIRE
2007,10/22/2007,SLIDE,13190,34.223,-117.088,,,,San Bernardino,MTBS,WILDFIRE
2007,4/29/2007,JAMES,2078,35.749,-118.398,,,,Kern,MTBS,WILDFIRE
2007,6/3/2007,GOLDLEDGE,4168,35.878,-118.428,,,,Tulare,MTBS,WILDFIRE
2007,8/27/2007,GROUSE,1073,36.285,-118.428,,,,Tulare,MTBS,WILDFIRE
2007,8/29/2007,WALLOW,1535,40.492,-123.343,,,,Trinity,MTBS,WILDFIRE
2007,6/23/2007,ANGORA,3014,38.886,-120.04,,,,El Dorado,MTBS,WILDFIRE
2007,10/21/2007,CANYON,4686,34.054,-118.677,,,,Los Angeles,MTBS,WILDFIRE
2007,5/8/2007,GRIFFITH PARK,1147,34.134,-118.311,,,,Los Angeles,MTBS,WILDFIRE
2007,10/29/2007,JACK,1130,37.573,-119.663,,,,Mariposa,MTBS,WILDFIRE
2007,2/21/2007,UNNAMED,1507,34.989,-120.163,,,,Santa Barbara,MTBS,UNKNOWN
2007,4/14/2007,GOLDEN,2062,36.03,-116.594,,,,Inyo,MTBS,WILDFIRE
2007,8/10/2007,TAR,5010,35.927,-120.298,,,,Fresno,MTBS,WILDFIRE
2007,11/24/2007,CORRAL,4555,34.055,-118.748,,,,Los Angeles,MTBS,WILDFIRE
2008,10/13/2008,SESNON,15235,34.307,-118.604,,,,Los Angeles,MTBS,WILDFIRE
2008,6/21/2008,SHU LIGHTNING COMPLEX (MOON),36514,40.546,-122.663,,,,Shasta,MTBS,WILDFIRE
2008,6/21/2008,SHU LIGHTNING COMPLEX (LOWER),1470,40.638,-122.764,,,,Trinity,MTBS,WILDFIRE
2008,6/22/2008,PETERSON COMPLEX,7932,40.917,-121.338,,,,Shasta,MTBS,WILDFIRE
2008,6/22/2008,WALKER,12441,39.066,-122.479,,,,Colusa,MTBS,WILDFIRE
2008,6/21/2008,MEU LIGHTNING COMPLEX (RED MOUNTAIN),7636,39.892,-123.639,,,,Mendocino,MTBS,WILDFIRE
2008,5/6/2008,COLYEAR,1769,40.078,-122.679,,,,Tehama,MTBS,WILDFIRE
2008,6/22/2008,BROWN,3975,36.686,-120.921,,,,San Benito,MTBS,WILDFIRE
2008,6/10/2008,OPHIR,1033,39.441,-121.567,,,,Butte,MTBS,WILDFIRE
2008,6/11/2008,HUMBOLDT,23769,39.703,-121.683,,,,Butte,MTBS,WILDFIRE
2008,8/4/2008,CRAIG,1758,39.581,-121.347,,,,Butte,MTBS,WILDFIRE
2008,7/2/2008,YELLOW,33232,33.392,-117.455,,,,San Diego,MTBS,WILDFIRE
2008,5/20/2008,AVOCADO,1245,36.791,-119.371,,,,Fresno,MTBS,WILDFIRE
2008,6/21/2008,HUMBOLDT COMPLEX (PARADISE),1226,40.117,-124.052,,,,Humboldt,MTBS,WILDFIRE
2008,6/21/2008,WILD,4100,38.301,-122.169,,,,Solano,MTBS,WILDFIRE
2008,6/21/2008,MEU LIGHTNING COMPLEX (COWSHED  LIGHTNING),4835,39.029,-123.611,,,,Mendocino,MTBS,WILDFIRE
2008,6/21/2008,MEU LIGHTNING COMPLEX (NAVARRO),3220,39.185,-123.619,,,,Mendocino,MTBS,WILDFIRE
2008,6/21/2008,MEU LIGHTNING COMPLEX (SUGARLOAF),8344,38.999,-123.503,,,,Mendocino,MTBS,WILDFIRE
2008,6/22/2008,MEU LIGHTNING COMPLEX (CLIFF),4346,39.053,-123.568,,,,Mendocino,MTBS,WILDFIRE
2008,6/23/2008,MEU LIGHTNING COMPLEX (MIDDLE),2087,39.761,-123.8,,,,Mendocino,MTBS,WILDFIRE
2008,6/26/2008,MEU LIGHTNING COMPLEX (INDIAN),1129,39.381,-123.606,,,,Mendocino,MTBS,WILDFIRE
2008,6/21/2008,MEU LIGHTNING COMPLEX (HARDY),5520,39.708,-123.768,,,,Mendocino,MTBS,WILDFIRE
2008,7/4/2008,MEU LIGHTNING COMPLEX (BUTCH),2436,39.71,-123.173,,,,Mendocino,MTBS,WILDFIRE
2008,7/4/2008,MEU LIGHTNING COMPLEX (LOST PIPE),1422,39.779,-123.714,,,,Mendocino,MTBS,WILDFIRE
2008,7/4/2008,MEU LIGHTNING COMPLEX (LOW GAP),2138,39.156,-123.383,,,,Mendocino,MTBS,WILDFIRE
2008,7/4/2008,MEU LIGHTNING COMPLEX (ORR),1682,39.218,-123.392,,,,Mendocino,MTBS,WILDFIRE
2008,7/5/2008,MEU LIGHTNING COMPLEX (TRAVIS),1503,40.017,-123.227,,,,Trinity,MTBS,WILDFIRE
2008,6/10/2008,41 FIRE,2607,36.989,-119.766,,,,Madera,MTBS,WILDFIRE
2008,6/21/2008,HWY 140,1267,37.333,-120.13,,,,Mariposa,MTBS,WILDFIRE
2008,6/21/2008,SODA COMPLEX (MILL),3551,39.477,-123.085,,,,Mendocino,MTBS,WILDFIRE
2008,6/21/2008,TWENTY,1133,39.184,-121.482,,,,Yuba,MTBS,WILDFIRE
2008,9/1/2008,GLADDING,1037,38.916,-121.252,,,,Placer,MTBS,WILDFIRE
2008,7/8/2008,CANYON COMPLEX (FRIEND-DARNELL),4172,39.632,-121.312,,,,Butte,MTBS,WILDFIRE
2008,6/21/2008,CANYON COMPLEX (BEAR),1515,39.845,-121.381,,,,Butte,MTBS,WILDFIRE
2008,5/21/2008,SUMMIT,3642,37.047,-121.794,,,,Santa Cruz,MTBS,WILDFIRE
2008,6/20/2008,SHU LIGHTNING COMPLEX (KIRKMAN),2289,40.528,-122.071,,,,Shasta,MTBS,WILDFIRE
2008,6/20/2008,SHU LIGHTNING COMPLEX (PINE),1985,40.726,-122.074,,,,Shasta,MTBS,WILDFIRE
2008,6/21/2008,MAD RIVER COMPLEX (TRAVIS),1103,40.121,-123.294,,,,Trinity,MTBS,WILDFIRE
2008,6/10/2008,LAGRANGE,1413,37.692,-120.444,,,,Tuolumne,MTBS,WILDFIRE
2008,6/23/2008,TGU LIGHTNING COMPLEX (ANTELOPE),3350,40.251,-121.871,,,,Tehama,MTBS,WILDFIRE
2008,10/9/2008,NOVEMBER,3765,33.274,-117.332,,,,San Diego,MTBS,WILDFIRE
2008,10/16/2008,JULIET,2356,33.301,-117.288,,,,San Diego,MTBS,WILDFIRE
2008,10/12/2008,MAREK,4941,34.309,-118.382,,,,Los Angeles,MTBS,WILDFIRE
2008,11/14/2008,SAYRE,11227,34.339,-118.462,,,,Los Angeles,MTBS,WILDFIRE
2008,11/15/2008,FREEWAY COMPLEX,29350,33.919,-117.753,,,,Orange,MTBS,WILDFIRE
2008,6/21/2008,BEAR WALLOW COMPLEX (CARIBOU),12914,41.059,-123.027,,,,Siskiyou,MTBS,WILDFIRE
2008,6/28/2008,BEAR WALLOW COMPLEX (ANTHONY MILNE),2175,41.505,-123.184,,,,Siskiyou,MTBS,WILDFIRE
2008,7/22/2008,PANTHER,71448,41.541,-123.381,,,,Siskiyou,MTBS,WILDFIRE
2008,6/21/2008,CUB COMPLEX (CUB),20772,40.194,-121.491,,,,Tehama,MTBS,WILDFIRE
2008,6/20/2008,BTU LIGHTNING COMPLEX (SMOKEY),1423,40.063,-121.621,,,,Tehama,MTBS,WILDFIRE
2008,6/21/2008,SHU LIGHTNING COMPLEX (VENTURE),2030,40.982,-121.581,,,,Shasta,MTBS,WILDFIRE
2008,6/21/2008,TGU LIGHTNING COMPLEX (MILL),13447,40.162,-121.868,,,,Tehama,MTBS,WILDFIRE
2008,8/14/2008,BTU LIGHTNING COMPLEX (LONG BRANCH-JACK),52091,39.852,-121.444,,,,Butte,MTBS,WILDFIRE
2008,6/23/2008,CORRAL,11601,40.86,-120.86,,,,Lassen,MTBS,WILDFIRE
2008,6/8/2008,BASIN COMPLEX (INDIANS),59095,36.136,-121.378,,,,Monterey,MTBS,WILDFIRE
2008,6/21/2008,BASIN COMPLEX,164537,36.212,-121.578,,,,Monterey,MTBS,WILDFIRE
2008,7/1/2008,GAP,9368,34.485,-119.866,,,,Santa Barbara,MTBS,WILDFIRE
2008,9/27/2008,CHALK,15420,36.016,-121.468,,,,Monterey,MTBS,WILDFIRE
2008,11/13/2008,TEA,1927,34.454,-119.676,,,,Santa Barbara,MTBS,WILDFIRE
2008,6/12/2008,WHISKEY,8263,39.855,-122.669,,,,Tehama,MTBS,WILDFIRE
2008,6/21/2008,SODA COMPLEX (BIG),1977,39.416,-123.076,,,,Mendocino,MTBS,WILDFIRE
2008,6/21/2008,SODA COMPLEX (MONKEY  ROCK),1785,39.544,-122.968,,,,Mendocino,MTBS,WILDFIRE
2008,6/21/2008,SODA COMPLEX (BACK),1740,39.37,-122.977,,,,Lake,MTBS,WILDFIRE
2008,6/21/2008,SISKIYOU-BLUE 2 COMPLEX (BLUE 2),100823,41.614,-123.658,,,,Siskiyou,MTBS,WILDFIRE
2008,6/20/2008,HELLS HALF FIRE (HALF),14873,40.763,-123.56,,,,Humboldt,MTBS,WILDFIRE
2008,6/21/2008,MAD RIVER COMPLEX (BONANZA),1503,40.212,-123.227,,,,Trinity,MTBS,WILDFIRE
2008,6/22/2008,CANYON COMPLEX (LITTLE),1617,39.765,-121.248,,,,Plumas,MTBS,WILDFIRE
2008,6/21/2008,CANYON COMPLEX (FOUR MILE),2873,39.755,-121.339,,,,Butte,MTBS,WILDFIRE
2008,6/21/2008,CANYON COMPLEX (SCOTCH),26418,39.722,-121.191,,,,Plumas,MTBS,WILDFIRE
2008,6/21/2008,CANYON COMPLEX (COLD),5953,39.835,-120.807,,,,Plumas,MTBS,WILDFIRE
2008,7/29/2008,RICH,6680,40.04,-121.137,,,,Plumas,MTBS,WILDFIRE
2008,5/31/2008,CLOVER,14778,36.133,-118.084,,,,Tulare,MTBS,WILDFIRE
2008,6/28/2008,PIUTE,36251,35.495,-118.34,,,,Kern,MTBS,WILDFIRE
2008,6/21/2008,IRON AND ALPS COMPLEXES (EAGLE),32397,40.714,-123.162,,,,Trinity,MTBS,WILDFIRE
2008,6/21/2008,IRON AND ALPS COMPLEXES (ZEIGLER),2450,40.869,-123.479,,,,Trinity,MTBS,WILDFIRE
2008,6/21/2008,IRON AND ALPS COMPLEXES (CEDAR),25277,40.749,-123.361,,,,Trinity,MTBS,WILDFIRE
2008,6/21/2008,LIME COMPLEX (MINERS),25680,40.637,-123.268,,,,Trinity,MTBS,WILDFIRE
2008,6/20/2008,LIME COMPLEX (TELEPHONE),7312,40.421,-123.096,,,,Trinity,MTBS,WILDFIRE
2008,6/21/2008,YOLLA BOLLY COMPLEX (IRON),94888,40.096,-122.979,,,,Trinity,MTBS,WILDFIRE
2008,6/21/2008,LIME COMPLEX (NOBLE),12934,40.325,-122.905,,,,Shasta,MTBS,WILDFIRE
2008,6/21/2008,YOLLA BOLLY COMPLEX (TROUGH),3920,40.185,-123.119,,,,Trinity,MTBS,WILDFIRE
2008,6/20/2008,LIME COMPLEX (LIME),27234,40.495,-123.412,,,,Trinity,MTBS,WILDFIRE
2008,6/21/2008,IRON AND ALPS COMPLEXES (IRONSIDE),13001,40.823,-123.424,,,,Trinity,MTBS,WILDFIRE
2008,6/21/2008,IRON AND ALPS COMPLEXES (CAREY),4022,41.073,-123.294,,,,Trinity,MTBS,WILDFIRE
2008,6/21/2008,LIME COMPLEX (DEADSHOT),1120,40.488,-122.922,,,,Trinity,MTBS,WILDFIRE
2008,6/21/2008,SHU LIGHTNING COMPLEX (DEERLICK),13605,40.452,-122.846,,,,Shasta,MTBS,WILDFIRE
2008,6/21/2008,LIME COMPLEX (SLIDE),1223,40.659,-123.513,,,,Trinity,MTBS,WILDFIRE
2008,6/21/2008,IRON AND ALPS COMPLEXES (BUCKHORN),29446,40.837,-123.263,,,,Trinity,MTBS,WILDFIRE
2008,6/22/2008,SHU LIGHTNING COMPLEX (MOTION),29346,40.698,-122.51,,,,Shasta,MTBS,WILDFIRE
2008,9/7/2008,GULCH,3133,40.38,-122.946,,,,Shasta,MTBS,WILDFIRE
2008,6/21/2008,SHU LIGHTNING COMPLEX (STEIN),1269,40.787,-122.091,,,,Shasta,MTBS,WILDFIRE
2008,6/21/2008,OLIVER,2855,37.499,-119.74,,,,Mariposa,MTBS,WILDFIRE
2008,6/21/2008,NORTH MOUNTAIN,2805,37.899,-119.897,,,,Tuolumne,MTBS,WILDFIRE
2008,7/25/2008,TELEGRAPH,33479,37.607,-120.015,,,,Mariposa,MTBS,WILDFIRE
2008,6/21/2008,YUBA RIVER COMPLEX (SCOTCHMAN),1206,39.35,-120.766,,,,Nevada,MTBS,WILDFIRE
2008,6/21/2008,YUBA RIVER COMPLEX (FALL),2088,39.376,-120.696,,,,Nevada,MTBS,WILDFIRE
2008,6/21/2008,AMERICAN RIVER COMPLEX (GOVERNMENT),20709,39.208,-120.596,,,,Placer,MTBS,WILDFIRE
2008,8/17/2008,JACK,6062,41.811,-121.53,,,,Siskiyou,MTBS,WILDFIRE
2008,7/19/2008,TEHIPITE,12205,36.941,-118.811,,,,Fresno,MTBS,WILDFIRE
2008,9/10/2008,HIDDEN,3703,36.603,-118.829,,,,Tulare,MTBS,WILDFIRE
2008,6/6/2008,UNNAMED,6738,35.823,-120.795,,,,Monterey,MTBS,UNKNOWN
2008,6/6/2008,UNNAMED,2849,35.977,-121.302,,,,Monterey,MTBS,UNKNOWN
2008,8/9/2008,UNNAMED,1220,35.974,-121.267,,,,Monterey,MTBS,UNKNOWN
2008,8/26/2008,UNNAMED,1676,36.034,-118.875,,,,Tulare,MTBS,UNKNOWN
2008,6/20/2008,BEAR WALLOW COMPLEX (UKONOM),40029,41.349,-123.308,,,,Siskiyou,MTBS,UNKNOWN
2008,7/4/2008,MEU LIGHTNING COMPLEX (JACK SMITH),1071,39.265,-123.322,,,,Mendocino,MTBS,WILDFIRE
2009,9/7/2009,OASIS,1476,38.946,-122.401,,,,Lake,MTBS,WILDFIRE
2009,9/22/2009,GUIBERSON,19356,34.351,-118.882,,,,Ventura,MTBS,WILDFIRE
2009,8/1/2009,DODGE COMPLEX (MENDIBOURNE),1492,40.978,-120.371,,,,Lassen,MTBS,WILDFIRE
2009,8/2/2009,SHU LIGHTNING COMPLEX (CASSEL),6452,40.942,-121.487,,,,Shasta,MTBS,WILDFIRE
2009,8/12/2009,COFFIN,1091,40.684,-122.835,,,,Trinity,MTBS,WILDFIRE
2009,8/30/2009,OAK GLEN 3,2050,34.035,-116.986,,,,San Bernardino,MTBS,WILDFIRE
2009,8/26/2009,BRYSON,3705,35.863,-121.043,,,,Monterey,MTBS,WILDFIRE
2009,8/28/2009,GLORIA,6686,36.463,-121.292,,,,Monterey,MTBS,WILDFIRE
2009,8/12/2009,LOCKHEED,8287,37.082,-122.214,,,,Santa Cruz,MTBS,WILDFIRE
2009,8/15/2009,YUBA,4016,39.339,-121.186,,,,Yuba,MTBS,WILDFIRE
2009,6/19/2009,EXPLOSIVE,2150,37.669,-121.502,,,,San Joaquin,MTBS,WILDFIRE
2009,8/13/2009,CORRAL,12006,37.593,-121.488,,,,San Joaquin,MTBS,WILDFIRE
2009,8/29/2009,PACHECO,1732,37.028,-121.343,,,,Santa Clara,MTBS,WILDFIRE
2009,6/17/2009,SHOTGUN,1286,36.322,-118.533,,,,Tulare,MTBS,WILDFIRE
2009,8/25/2009,MORRIS,2591,34.197,-117.86,,,,Los Angeles,MTBS,WILDFIRE
2009,8/26/2009,STATION,165368,34.327,-118.136,,,,Los Angeles,MTBS,WILDFIRE
2009,7/18/2009,FORKS,2932,37.28,-118.584,,,,Inyo,MTBS,WILDFIRE
2009,7/19/2009,TENNANT,3069,41.704,-122.012,,,,Siskiyou,MTBS,WILDFIRE
2009,8/21/2009,RED ROCK,1418,41.566,-123.166,,,,Siskiyou,MTBS,WILDFIRE
2009,8/1/2009,HAT CREEK COMPLEX (SUGARLOAF),9632,40.702,-121.439,,,,Shasta,MTBS,WILDFIRE
2009,8/2/2009,HAT CREEK COMPLEX (BROWN),1844,40.833,-121.534,,,,Shasta,MTBS,WILDFIRE
2009,5/5/2009,JESUSITA,8569,34.474,-119.725,,,,Santa Barbara,MTBS,WILDFIRE
2009,8/8/2009,LA BREA,84213,34.936,-120.027,,,,Santa Barbara,MTBS,WILDFIRE
2009,7/2/2009,BACKBONE,4702,41.07,-123.436,,,,Trinity,MTBS,WILDFIRE
2009,10/7/2009,MILL CREEK 4,2870,41.202,-123.621,,,,Humboldt,MTBS,WILDFIRE
2009,8/27/2009,COTTONWOOD,2542,33.746,-116.822,,,,Riverside,MTBS,WILDFIRE
2009,10/3/2009,SHEEP,7451,34.31,-117.541,,,,San Bernardino,MTBS,WILDFIRE
2009,6/30/2009,LION COMPLEX (LION),3308,36.168,-118.293,,,,Tulare,MTBS,WILDFIRE
2009,7/21/2009,LION COMPLEX (GRANITE),1737,36.153,-118.214,,,,Tulare,MTBS,WILDFIRE
2009,7/5/2009,REDSPOT,1177,41.158,-123.405,,,,Trinity,MTBS,WILDFIRE
2009,8/2/2009,SHU LIGHTNING COMPLEX (GOOSE),4252,40.973,-121.762,,,,Shasta,MTBS,WILDFIRE
2009,8/2/2009,SHU LIGHTNING COMPLEX (CHALK),6847,40.986,-121.812,,,,Shasta,MTBS,WILDFIRE
2009,7/26/2009,KNIGHT,8140,38.175,-120.229,,,,Tuolumne,MTBS,WILDFIRE
2009,8/3/2009,FAIRFIELD,1427,40.526,-121.349,,,,Shasta,MTBS,WILDFIRE
2009,5/30/2009,GROUSE,3087,37.687,-119.686,,,,Mariposa,MTBS,WILDFIRE
2009,6/8/2009,HARDEN,1663,37.893,-119.694,,,,Tuolumne,MTBS,WILDFIRE
2009,7/29/2009,WILDCAT,1176,37.942,-119.482,,,,Tuolumne,MTBS,WILDFIRE
2009,8/26/2009,BIG MEADOW,7837,37.731,-119.757,,,,Mariposa,MTBS,WILDFIRE
2009,4/26/2009,LEASE LAND CO OP FIELDS,1385,41.929,-121.655,,,,Siskiyou,MTBS,UNKNOWN
2009,3/19/2009,UNIT 13 A,1530,41.901,-121.706,,,,Siskiyou,MTBS,UNKNOWN
2010,7/18/2010,INDIAN,1901,35.708,-117.968,,,,Kern,MTBS,WILDFIRE
2010,7/16/2010,SAND 2,1089,35.783,-117.966,,,,Kern,MTBS,WILDFIRE
2010,5/15/2010,COTTON,2083,35.061,-119.886,,,,San Luis Obispo,MTBS,WILDFIRE
2010,5/15/2010,WASH,1039,35.116,-119.786,,,,San Luis Obispo,MTBS,WILDFIRE
2010,7/26/2010,MCDONALD,10041,40.947,-120.343,,,,Lassen,MTBS,WILDFIRE
2010,7/24/2010,CONSTANTIA,1511,39.934,-120.058,,,,Lassen,MTBS,WILDFIRE
2010,10/28/2010,BEAR CREEK,1311,34.654,-120.583,,,,Santa Barbara,MTBS,WILDFIRE
2010,8/21/2010,MONTE,1013,32.894,-116.817,,,,San Diego,MTBS,WILDFIRE
2010,7/13/2010,ALISO,3264,33.343,-117.362,,,,San Diego,MTBS,WILDFIRE
2010,5/20/2010,MCKINLEY,1210,33.859,-117.502,,,,Riverside,MTBS,WILDFIRE
2010,6/4/2010,BALES,1017,35.821,-118.994,,,,Tulare,MTBS,WILDFIRE
2010,6/12/2010,ROBINSON,1527,37.465,-120.358,,,,Merced,MTBS,WILDFIRE
2010,7/17/2010,WEST,1790,35.066,-118.412,,,,Kern,MTBS,WILDFIRE
2010,7/17/2010,VALLEY COMPLEX,1012,33.658,-116.907,,,,Riverside,MTBS,WILDFIRE
2010,7/25/2010,WOLF CREEK,1209,38.561,-119.721,,,,Alpine,MTBS,WILDFIRE
2010,7/29/2010,CROWN,14033,34.576,-118.228,,,,Los Angeles,MTBS,WILDFIRE
2010,7/26/2010,MONO,1300,37.902,-119.051,,,,Mono,MTBS,WILDFIRE
2010,8/21/2010,POZO,1347,35.329,-120.32,,,,San Luis Obispo,MTBS,WILDFIRE
2010,8/24/2010,POST,1454,34.839,-118.905,,,,Kern,MTBS,WILDFIRE
2010,7/31/2010,BAR,1146,40.031,-121.176,,,,Plumas,MTBS,WILDFIRE
2010,7/26/2010,BULL,17238,35.812,-118.45,,,,Tulare,MTBS,WILDFIRE
2010,9/12/2010,CANYON,11064,35.554,-118.542,,,,Kern,MTBS,WILDFIRE
2010,8/27/2010,BULLARD,1311,39.392,-121.146,,,,Yuba,MTBS,WILDFIRE
2010,7/16/2010,SHEEP COMPLEX,9614,36.783,-118.722,,,,Fresno,MTBS,WILDFIRE
2010,7/25/2010,SLOPE,2365,37.903,-119.669,,,,Tuolumne,MTBS,WILDFIRE
2010,10/20/2010,MERSAN,1081,37.252,-120.756,,,,Merced,MTBS,UNKNOWN
2012,8/5/2012,HELLO,1098,41.962,-123.228,,,,Siskiyou,MTBS,WILDFIRE
2012,8/18/2012,BAGLEY,47731,41.032,-122.055,,,,Shasta,MTBS,WILDFIRE
2012,8/5/2012,FORT COMPLEX,24378,41.903,-123.22,,,,Siskiyou,MTBS,WILDFIRE
2012,7/5/2012,DALE,1439,40.488,-122.483,,,,Shasta,MTBS,WILDFIRE
2012,7/11/2012,FLAT,1832,40.792,-123.335,,,,Trinity,MTBS,WILDFIRE
2012,8/18/2012,NORTH PASS,43689,39.894,-123.047,,,,Mendocino,MTBS,WILDFIRE
2012,8/18/2012,PONDEROSA,28690,40.424,-121.776,,,,Tehama,MTBS,WILDFIRE
2012,8/1/2012,SALT CREEK,1161,40.841,-122.321,,,,Shasta,MTBS,WILDFIRE
2012,9/5/2012,STAFFORD,4509,40.541,-123.107,,,,Trinity,MTBS,WILDFIRE
2012,7/7/2012,MILL,29924,39.32,-122.627,,,,Colusa,MTBS,WILDFIRE
